 city,state, postal, latitude, longitude
Adjuntas,PR,601,18.1786,-66.7518
Aguada,PR,602,18.3604,-67.1764
Aguadilla,PR,603,18.432784,-67.15489
Aguadilla,PR,604,18.444906,-67.141177
Aguadilla,PR,605,18.444906,-67.141177
Maricao,PR,606,18.1749,-66.9463
Anasco,PR,610,18.287352,-67.13246
Arecibo,PR,612,18.40334,-66.67502
Arecibo,PR,613,18.401525,-66.766536
Arecibo,PR,614,18.45793,-66.73749
Barceloneta,PR,614,18.417994,-66.578341
Barceloneta,PR,617,18.4459,-66.556
Cabo Rojo,PR,623,18.087329,-67.144012
Penuelas,PR,624,18.053305,-66.724395
Camuy,PR,627,18.4345,-66.86
Adjuntas,PR,631,18.223551,-66.864503
Sabana Grande,PR,637,18.079179,-66.957768
Ciales,PR,638,18.325298,-66.473317
Utuado,PR,641,18.26651,-66.698482
Dorado,PR,646,18.4448,-66.2657
Toa Baja,PR,646,18.460263,-66.262148
Florida,PR,650,18.363825,-66.57198
Guanica,PR,653,17.98771,-66.89904
Gu+//0-nica,PR,653,17.9695,-66.913
Guayanilla,PR,656,18.0097,-66.799939
Hatillo,PR,659,18.489861,-66.823985
Hormigueros,PR,660,18.139518,-67.140018
Isabela,PR,662,18.503796,-67.023292
Jayuya,PR,664,18.214082,-66.58259
Lajas,PR,667,18.050635,-67.060099
Lares,PR,669,18.300208,-66.881484
Las Marias,PR,670,18.24946,-66.99079
Manati,PR,674,18.412913,-66.483789
Moca,PR,676,18.3792,-67.0846
Rincon,PR,677,18.3307,-67.2326
Quebradillas,PR,678,18.44439,-66.93381
Mayaguez,PR,680,18.203583,-67.133334
Mayaguez,PR,682,18.205116,-67.151512
San German,PR,683,18.1014,-67.0422
San Sebastian,PR,685,18.328424,-66.972921
Morovis,PR,687,18.326281,-66.40895
Vega Alta,PR,692,18.408051,-66.326657
Cata+//0-o,PR,692,18.4125,-66.3273
Vega Baja,PR,693,18.434418,-66.405809
Yauco,PR,698,18.0619,-66.8566
Aguas Buenas,PR,703,18.252624,-66.101417
Agua Buenas,PR,703,18.2534,-66.1072
Aibonito,PR,705,18.1327,-66.2657
Maunabo,PR,707,17.993718,-65.916036
Arroyo,PR,714,17.98973,-66.053427
Ponce,PR,715,18.012036,-66.584668
Ponce,PR,716,18.015,-66.6039
Ponce,PR,717,17.997993,-66.647572
Naguabo,PR,718,18.209879,-65.733642
Naranjito,PR,719,18.28867,-66.25966
Naguago,PR,719,18.2767,-66.2388
Orocovis,PR,720,18.217093,-66.449021
Patillas,PR,723,18.0129,-66.0021
Caguas,PR,725,18.229561,-66.032756
Caguas,PR,726,18.236156,-66.013797
Caguas,PR,727,18.208527,-66.055734
Ponce,PR,728,18.015359,-66.630167
Canovanas,PR,729,18.377342,-65.901509
Ponce,PR,730,18.0251,-66.6045
Ponce,PR,731,18.09908,-66.62342
Ponce,PR,732,18.006005,-66.627506
Ponce,PR,733,18.015846,-66.614125
Ceiba,PR,735,18.2521,-65.6563
Cayey,PR,736,18.108714,-66.167295
Cayey,PR,737,18.132427,-66.144878
Fajardo,PR,738,18.322572,-65.660427
Cidra,PR,739,18.174489,-66.158751
Cayey,PR,739,18.175797,-66.159706
Puerto Real,PR,740,18.334,-65.6378
Ceiba,PR,742,18.264906,-65.646166
Rio Grande,PR,745,18.349019,-65.812063
Canovanas,PR,745,18.369973,-65.91203
Salinas,PR,751,17.973836,-66.280955
San Lorenzo,PR,754,18.15537,-65.98777
Santa Isabel,PR,757,17.960217,-66.405321
Vieques,PR,765,18.09841,-65.42353
Villalba,PR,766,18.096241,-66.512826
Yabucoa,PR,767,18.050754,-65.87636
Coamo,PR,769,18.100248,-66.351013
Las Piedras,PR,771,18.181747,-65.86957
Loiza,PR,772,18.423074,-65.835601
Luquillo,PR,773,18.3581,-65.7235
Culebra,PR,775,18.307585,-65.303132
Juncos,PR,777,18.228088,-65.924769
Gurabo,PR,778,18.25495,-65.971047
Ponce,PR,780,18.073373,-66.562869
Comerio,PR,782,18.2284,-66.2202
Corozal,PR,783,18.3423,-66.317755
Guayama,PR,784,17.986315,-66.110558
Guayama,PR,785,17.974399,-66.100583
Humacao,PR,791,18.145707,-65.830808
Humacao,PR,792,18.1442,-65.8226
Barranquitas,PR,794,18.186387,-66.307568
Barranquita,PR,794,18.1848,-66.31
Juana Diaz,PR,795,18.038101,-66.443854
St Thomas,VI,802,18.342312,-64.92
Stthomas,VI,802,18.34028,-64.88556
St Thomas,VI,802,18.34028,-64.88556
St Thomas,VI,804,18.340859,-64.927156
St Croix,VI,820,17.773218,-64.769483
Stcroix,VI,820,17.7475,-64.70389
St John,VI,830,18.348137,-64.712833
St John,VI,831,18.330475,-64.794151
St Croix,VI,840,17.693341,-64.880771
Stcroix,VI,840,17.71333,-64.88222
St Croix,VI,850,17.721163,-64.798707
Stcroix,VI,850,17.72556,-64.78333
St Croix,VI,851,17.727328,-64.786197
Morovis,PR,887,0,0
San Juan,PR,901,18.442571,-66.068848
San Juan,PR,906,18.465266,-66.095595
San Juan,PR,907,18.45155,-66.061467
San Juan,PR,908,18.45096,-66.081087
San Juan,PR,909,18.441741,-66.064737
San Juan,PR,910,18.4459,-66.0698
San Juan,PR,912,18.446679,-66.059278
San Juan,PR,913,18.448255,-66.038421
San Juan,PR,914,18.449899,-66.049579
San Juan,PR,915,18.438276,-66.055636
San Juan,PR,916,18.432769,-66.040208
San Juan,PR,917,18.419865,-66.049352
San Juan,PR,918,18.4185,-66.0601
San Juan,PR,919,18.408511,-66.037667
San Juan,PR,920,18.399492,-66.085799
San Juan,PR,921,18.448962,-66.051579
San Juan,PR,923,18.4102,-66.0365
San Juan,PR,924,18.3977,-66.0113
Carolina,PR,924,18.4088,-66.0131
San Juan,PR,925,18.403255,-66.047909
San Juan,PR,926,18.3588,-66.0594
Trujillo Alto,PR,926,18.37702,-66.055715
San Juan,PR,927,18.3969,-66.102209
San Juan,PR,928,18.362577,-66.071622
Guaynabo,PR,928,18.397617,-66.048334
Dorado,PR,946,0,0
Toa Baja,PR,949,18.444436,-66.254336
Toa Baja,PR,950,18.409143,-66.212042
Toa Baja,PR,951,18.457923,-66.187528
Toa Alta,PR,953,18.35907,-66.258118
Toa Alta,PR,954,18.366098,-66.218219
Bayamon,PR,956,18.3391,-66.1656
San Juan,PR,956,18.3659,-66.1635
Bayamon,PR,957,18.350061,-66.188041
Bayamon,PR,959,18.3911,-66.1589
Bayamon,PR,960,18.387104,-66.150812
Bayamon,PR,961,18.411281,-66.160518
Catano,PR,962,18.42906,-66.13703
Toa Baja,PR,962,18.443251,-66.130487
Cata+//0-o,PR,962,0,0
Catano,PR,962,18.4387,-66.1342
Cata+//0-o,PR,962,18.4387,-66.1342
Catano,PR,963,18.442143,-66.116826
Guaynabo,PR,965,18.4365,-66.1216
Guaynabo,PR,969,18.357974,-66.105148
Bayamon,PR,969,18.367,-66.1043
Guaynabo,PR,970,18.35554,-66.11372
Caguas,PR,970,18.233022,-66.024735
Catano,PR,970,18.355539,-66.113724
Guaynabo,PR,970,18.35499,-66.110889
Caguas,PR,970,18.355539,-66.113724
San Juan,PR,971,18.355539,-66.113724
Guaynabo,PR,971,18.35945,-66.11141
Catano,PR,971,18.301782,-66.086098
Trujillo Alto,PR,976,18.340213,-66.034937
Trujillo Alto,PR,977,18.353353,-66.007195
Carolina,PR,979,18.407294,-65.986311
Trujillo Alto,PR,979,18.435,-66.0144
Canovanas,PR,979,18.433904,-66.011756
Carolina,PR,982,18.406,-65.9882
Carolina,PR,983,18.416687,-65.977816
Carolina,PR,984,18.401042,-65.976222
Carolina,PR,985,18.358523,-65.964538
Canovanas,PR,985,18.395942,-65.896391
Carolina,PR,986,18.369252,-65.978922
Carolina,PR,987,18.364451,-65.938659
Canovanas,PR,987,18.348,-65.9478
Trujillo Alto,PR,987,18.378604,-65.97531
Carolina,PR,988,18.384799,-65.961051
Agawam,MA,1001,42.074229,-72.645607
Amherst,MA,1002,42.347276,-72.517505
Pelham,MA,1002,42.377991,-72.468298
Barre,MA,1005,42.400541,-72.115239
Belchertown,MA,1007,42.267357,-72.398915
Brimfield,MA,1010,42.119324,-72.202239
Chester,MA,1011,42.280273,-72.983694
Chesterfield,MA,1012,42.40351,-72.84921
Chicopee,MA,1013,42.140798,-72.608833
Chicopee,MA,1020,42.166279,-72.5881
Chicopee,MA,1022,42.197987,-72.56203
Cummington,MA,1026,42.458612,-72.889897
Easthampton,MA,1027,42.268533,-72.672099
Westhampton,MA,1027,42.30305,-72.77162
East Longmeadow,MA,1028,42.069828,-72.507534
Feeding Hills,MA,1030,42.064118,-72.673621
Gilbertville,MA,1031,42.31689,-72.18622
Granby,MA,1033,42.265446,-72.491348
Granville,MA,1034,42.06609,-72.85474
Hadley,MA,1035,42.353789,-72.55888
Hampden,MA,1036,42.06648,-72.41236
Hatfield,MA,1038,42.36997,-72.597953
Haydenville,MA,1039,42.37618,-72.70552
Holyoke,MA,1040,42.18584,-72.628668
Springfield,MA,1040,42.194151,-72.647266
Huntington,MA,1050,42.25,-72.8689
Leeds,MA,1053,42.351543,-72.697908
Leverett,MA,1054,42.46342,-72.49738
Ludlow,MA,1056,42.171815,-72.459529
Monson,MA,1057,42.113315,-72.324184
Northampton,MA,1060,42.323387,-72.626638
Florence,MA,1062,42.345646,-72.677315
Oakham,MA,1068,42.357466,-72.046529
Palmer,MA,1069,42.185367,-72.341906
Shutesbury,MA,1072,42.448904,-72.429568
Southampton,MA,1073,42.24135,-72.72426
South Hadley,MA,1075,42.24129,-72.59941
Southwick,MA,1077,42.061974,-72.753351
Wales,MA,1081,42.1048,-72.3182
Ware,MA,1082,42.2513,-72.262499
Warren,MA,1083,42.219026,-72.189415
Westfield,MA,1085,42.153498,-72.728871
West Springfield,MA,1089,42.10807,-72.62119
West Warren,MA,1092,42.190974,-72.222884
Whately,MA,1093,42.45071,-72.60935
Wilbraham,MA,1095,42.11125,-72.443222
Williamsburg,MA,1096,42.3914,-72.73088
Worthington,MA,1098,42.414841,-72.938542
Springfield,MA,1101,42.110857,-72.571851
Springfield,MA,1102,42.125284,-72.529179
Springfield,MA,1103,42.102829,-72.585855
Springfield,MA,1104,42.133086,-72.573708
Springfield,MA,1105,42.101294,-72.580303
Longmeadow,MA,1106,42.052435,-72.566206
Springfield,MA,1107,42.119915,-72.61483
Springfield,MA,1108,42.08863,-72.558829
Springfield,MA,1109,42.11312,-72.56458
Springfield,MA,1118,42.095599,-72.514149
Springfield,MA,1119,42.11386,-72.511521
Springfield,MA,1128,42.09732,-72.4923
Springfield,MA,1129,42.125526,-72.484384
Indian Orchard,MA,1151,42.154873,-72.493875
Springfield,MA,1151,42.15734,-72.50682
Pittsfield,MA,1201,42.45911,-73.22077
Adams,MA,1220,42.619554,-73.12117
Becket,MA,1223,42.3316,-73.08285
Cheshire,MA,1225,42.563883,-73.158632
Dalton,MA,1226,42.475545,-73.176882
Great Barrington,MA,1230,42.250197,-73.328437
Hinsdale,MA,1235,42.438189,-73.122945
Hancock,MA,1237,42.576847,-73.299169
Lanesborough,MA,1237,42.513325,-73.220565
Lee,MA,1238,42.307864,-73.24772
Lenox,MA,1240,42.35164,-73.258933
Great Barrington,MA,1244,42.12032,-73.26869
Monterey,MA,1245,42.178886,-73.216059
Clarksburg,MA,1247,42.718343,-73.103528
Florida,MA,1247,42.69322,-73.03747
North Adams,MA,1247,42.659212,-73.105049
Otis,MA,1253,42.207126,-73.096055
Richmond,MA,1254,42.38148,-73.36717
Savoy,MA,1256,42.56935,-72.99522
Sheffield,MA,1257,42.105865,-73.374361
Williamstown,MA,1267,42.671871,-73.240948
Greenfield,MA,1301,42.59655,-72.621777
Leyden,MA,1301,42.691467,-72.627565
Ashfield,MA,1330,42.508366,-72.811073
Athol,MA,1331,42.582672,-72.204474
Phillipston,MA,1331,42.548016,-72.133624
Bernardston,MA,1337,42.666093,-72.561474
Charlemont,MA,1339,42.626978,-72.874055
Colrain,MA,1340,42.67592,-72.69672
Conway,MA,1341,42.50919,-72.67305
Erving,MA,1344,42.589195,-72.485013
Heath,MA,1346,42.701247,-72.829857
Montague,MA,1351,42.5878,-72.54272
New Salem,MA,1355,42.5213,-72.35789
Northfield,MA,1360,42.68387,-72.484794
Orange,MA,1364,42.58736,-72.30984
Petersham,MA,1366,42.484345,-72.191099
Rowe,MA,1367,42.704083,-72.888836
Royalston,MA,1368,42.6776,-72.1441
Shelburne Falls,MA,1370,42.608631,-72.735021
South Deerfield,MA,1373,42.481326,-72.605076
Sunderland,MA,1375,42.46217,-72.57543
Turners Falls,MA,1376,42.597904,-72.522443
Gill,MA,1376,42.648988,-72.497852
Warwick,MA,1378,42.68725,-72.336817
Fitchburg,MA,1420,42.581,-71.8215
Ashburnham,MA,1430,42.602726,-71.921152
Ashby,MA,1431,42.67886,-71.82327
Ayer,MA,1432,42.566732,-71.579514
Devens,MA,1434,42.548649,-71.606549
Baldwinville,MA,1436,42.60504,-72.07517
East Templeton,MA,1438,42.560727,-72.039704
Gardner,MA,1440,42.574042,-71.982409
Groton,MA,1450,42.617216,-71.579041
Harvard,MA,1451,42.49745,-71.584918
Hubbardston,MA,1452,42.474321,-72.007956
Leominster,MA,1453,42.521975,-71.76498
Littleton,MA,1460,42.541428,-71.507586
Lunenburg,MA,1462,42.597466,-71.718727
Pepperell,MA,1463,42.673864,-71.591346
Shirley,MA,1464,42.539764,-71.65731
Templeton,MA,1468,42.55394,-72.067144
Townsend,MA,1469,42.67007,-71.713
Westminster,MA,1473,42.52865,-71.875827
Winchendon,MA,1475,42.683963,-72.052057
Auburn,MA,1501,42.208352,-71.836883
Berlin,MA,1503,42.381169,-71.639627
Blackstone,MA,1504,42.029986,-71.538207
Boylston,MA,1505,42.370958,-71.721404
Brookfield,MA,1506,42.214013,-72.097119
Charlton,MA,1507,42.132045,-71.971592
Clinton,MA,1510,42.408234,-71.701043
East Brookfield,MA,1515,42.232587,-72.037048
Douglas,MA,1516,42.06759,-71.69996
Fiskdale,MA,1518,42.16059,-72.127468
Grafton,MA,1519,42.211611,-71.694732
Holden,MA,1520,42.337435,-71.851342
Holland,MA,1521,42.06547,-72.1599
Jefferson,MA,1522,42.363029,-71.888263
Lancaster,MA,1523,42.46824,-71.67529
Leicester,MA,1524,42.223142,-71.912188
Millbury,MA,1527,42.188061,-71.772927
Millville,MA,1529,42.033396,-71.577508
New Braintree,MA,1531,42.317467,-72.121958
Northborough,MA,1532,42.32424,-71.64786
Northbridge,MA,1534,42.154114,-71.649238
North Brookfield,MA,1535,42.278864,-72.079811
North Grafton,MA,1536,42.238383,-71.702221
Oxford,MA,1540,42.107295,-71.870035
Princeton,MA,1541,42.44243,-71.84371
Rutland,MA,1543,42.369864,-71.954661
Shrewsbury,MA,1545,42.283845,-71.693335
Southbridge,MA,1550,42.08121,-72.022706
South Grafton,MA,1560,42.179341,-71.695087
Spencer,MA,1562,42.24149,-71.98406
Sterling,MA,1564,42.41217,-71.777055
Sturbridge,MA,1566,42.112846,-72.095053
Upton,MA,1568,42.1634,-71.615874
Uxbridge,MA,1569,42.083795,-71.62569
Webster,MA,1570,42.043055,-71.868651
Dudley,MA,1571,42.057329,-71.885883
Westborough,MA,1581,42.293114,-71.604186
West Boylston,MA,1583,42.37216,-71.786946
West Brookfield,MA,1585,42.238728,-72.132807
Whitinsville,MA,1588,42.108739,-71.657105
Sutton,MA,1590,42.142559,-71.773685
Worcester,MA,1602,42.269346,-71.820391
Worcester,MA,1603,42.24787,-71.82468
Worcester,MA,1604,42.256451,-71.787384
Worcester,MA,1605,42.272986,-71.809659
Worcester,MA,1606,42.305635,-71.801599
Worcester,MA,1607,42.233786,-71.79619
Worcester,MA,1608,42.252955,-71.80009
Worcester,MA,1609,42.263347,-71.806168
Worcester,MA,1610,42.254456,-71.818923
Paxton,MA,1612,42.309645,-71.928445
Framingham,MA,1701,42.293782,-71.416794
Framingham,MA,1702,42.280787,-71.414688
Boxborough,MA,1719,42.48182,-71.50605
Acton,MA,1720,42.482,-71.4714
Ashland,MA,1721,42.263602,-71.444304
Bedford,MA,1730,42.49136,-71.285
Bedford,MA,1731,42.4581,-71.2802
Hanscom Air Force Bs,MA,1731,42.4564,-71.27692
Bolton,MA,1740,42.429457,-71.608827
Carlisle,MA,1741,42.526648,-71.348978
Concord,MA,1742,42.45366,-71.346222
Holliston,MA,1746,42.205186,-71.442762
Hopedale,MA,1747,42.12889,-71.53757
Hopkinton,MA,1748,42.21776,-71.51917
Hudson,MA,1749,42.399875,-71.575137
Marlborough,MA,1752,42.333694,-71.577368
Maynard,MA,1754,42.42197,-71.45282
Mendon,MA,1756,42.10891,-71.556486
Milford,MA,1757,42.149983,-71.528635
Natick,MA,1760,42.308091,-71.358509
Sherborn,MA,1770,42.248068,-71.364039
Southborough,MA,1772,42.29945,-71.54179
Lincoln,MA,1773,42.425135,-71.313783
Stow,MA,1775,42.437512,-71.508217
Sudbury,MA,1776,42.39789,-71.39762
Wayland,MA,1778,42.329307,-71.347218
Woburn,MA,1801,42.46421,-71.17661
Burlington,MA,1803,42.496218,-71.198108
Andover,MA,1810,42.657463,-71.155895
Billerica,MA,1821,42.561225,-71.273222
Chelmsford,MA,1824,42.573238,-71.382307
Dracut,MA,1826,42.676093,-71.337812
Dunstable,MA,1827,42.673248,-71.482477
Haverhill,MA,1830,42.77536,-71.05831
Haverhill,MA,1832,42.76571,-71.120297
Georgetown,MA,1833,42.72413,-70.98648
Groveland,MA,1834,42.74285,-71.02386
Haverhill,MA,1835,42.75933,-71.08669
Bradford,MA,1835,42.75732,-71.06949
Lawrence,MA,1840,42.709531,-71.167776
Lawrence,MA,1841,42.708537,-71.173638
Lawrence,MA,1843,42.69443,-71.16693
Methuen,MA,1844,42.746125,-71.13219
North Andover,MA,1845,42.67081,-71.09821
Lowell,MA,1850,42.66033,-71.302261
Lowell,MA,1851,42.621314,-71.335656
Lowell,MA,1852,42.645279,-71.311481
Lowell,MA,1854,42.641418,-71.312027
Merrimac,MA,1860,42.82794,-71.00522
North Billerica,MA,1862,42.56362,-71.2943
Billerica,MA,1862,42.585364,-71.279191
North Chelmsford,MA,1863,42.622657,-71.379345
North Reading,MA,1864,42.56967,-71.12085
Reading,MA,1867,42.52167,-71.12402
Tewksbury,MA,1876,42.601489,-71.213741
Tyngsboro,MA,1879,42.658771,-71.408137
Tyngsborough,MA,1879,42.65401,-71.386261
Wakefield,MA,1880,42.49532,-71.04399
Westford,MA,1886,42.569875,-71.409147
Wilmington,MA,1887,42.546627,-71.188467
Winchester,MA,1890,42.44563,-71.15628
Lynn,MA,1901,42.464464,-70.943327
Lynn,MA,1902,42.4762,-70.92798
Lynn,MA,1904,42.50489,-70.98347
Lynn,MA,1905,42.460509,-70.969159
Saugus,MA,1906,42.462741,-71.013747
Swampscott,MA,1907,42.47455,-70.91716
Nahant,MA,1908,42.422594,-70.932629
Amesbury,MA,1913,42.85605,-70.934769
Beverly,MA,1915,42.56582,-70.880797
Boxford,MA,1921,42.66032,-71.00199
Byfield,MA,1922,42.744732,-70.919583
Danvers,MA,1923,42.582671,-70.931744
Essex,MA,1929,42.63214,-70.78974
Gloucester,MA,1930,42.627711,-70.655277
Hathorne,MA,1937,42.589842,-70.977237
Ipswich,MA,1938,42.687904,-70.852183
Lynnfield,MA,1940,42.523342,-71.023099
Manchester,MA,1944,42.581146,-70.765665
Marblehead,MA,1945,42.50826,-70.85335
Middleton,MA,1949,42.597306,-71.015909
Newburyport,MA,1950,42.80767,-70.88627
Newbury,MA,1951,42.790667,-70.870907
Salisbury,MA,1952,42.853445,-70.869836
Peabody,MA,1960,42.530173,-70.9463
Saugus,MA,1960,42.453312,-70.990166
Rockport,MA,1966,42.651744,-70.60873
Rowley,MA,1969,42.71703,-70.8747
Salem,MA,1970,42.517669,-70.889079
South Hamilton,MA,1982,42.621203,-70.877997
Hamilton,MA,1982,42.62916,-70.84708
Topsfield,MA,1983,42.627155,-70.974362
Wenham,MA,1984,42.60856,-70.88559
West Newbury,MA,1985,42.808673,-70.962076
Bellingham,MA,2019,42.07498,-71.4691
Canton,MA,2021,42.1822,-71.10385
Cohasset,MA,2025,42.232307,-70.809113
Dedham,MA,2026,42.23124,-71.147379
Dover,MA,2030,42.25125,-71.2712
East Walpole,MA,2032,42.148938,-71.23267
Foxborough,MA,2035,42.057287,-71.244753
Franklin,MA,2038,42.089034,-71.40066
Hingham,MA,2043,42.227476,-70.87764
Hull,MA,2045,42.304322,-70.920629
Mansfield,MA,2048,42.02532,-71.2221
Marshfield,MA,2050,42.132689,-70.727361
Medfield,MA,2052,42.194319,-71.312783
Medway,MA,2053,42.142305,-71.406388
Millis,MA,2054,42.164665,-71.360625
Norfolk,MA,2056,42.09727,-71.32754
Norwell,MA,2061,42.155312,-70.879341
Norwood,MA,2062,42.177018,-71.205703
Scituate,MA,2066,42.203863,-70.768812
Sharon,MA,2067,42.118828,-71.171728
Stoughton,MA,2072,42.13016,-71.13085
Walpole,MA,2081,42.163593,-71.238064
Westwood,MA,2090,42.22618,-71.21953
Wrentham,MA,2093,42.072223,-71.332586
Boston,MA,2108,42.313415,-71.059233
Boston,MA,2109,42.363089,-71.052056
Boston,MA,2111,42.3481,-71.0645
Boston,MA,2113,42.36625,-71.0534
Boston,MA,2114,42.365826,-71.066274
Boston,MA,2115,42.341584,-71.091687
Boston,MA,2116,42.3508,-71.0776
Boston,MA,2118,42.3407,-71.07246
Roxbury,MA,2118,42.340186,-71.079101
Roxbury,MA,2119,42.323969,-71.087661
Roxbury Plain,MA,2119,42.315102,-71.078809
Roxbury,MA,2120,42.327624,-71.105146
Boston,MA,2120,42.3311,-71.10019
Roxbury Crossing,MA,2120,42.333309,-71.087812
Dorchester,MA,2121,42.316232,-71.084471
Dorchester,MA,2122,42.292318,-71.064236
Boston,MA,2122,42.3013,-71.0588
Dorchester,MA,2124,42.289459,-71.072014
Dorchester Center,MA,2124,42.289932,-71.085963
Dorchester,MA,2125,42.321757,-71.060738
Mattapan,MA,2126,42.277842,-71.077454
South Boston,MA,2127,42.332878,-71.044188
East Boston,MA,2128,42.3845,-70.9991
Charlestown,MA,2129,42.3803,-71.0609
Jamaica Plain,MA,2130,42.313617,-71.114137
Boston,MA,2130,42.306342,-71.10859
Roslindale,MA,2131,42.281811,-71.122059
West Roxbury,MA,2132,42.263329,-71.155664
Allston,MA,2134,42.3522,-71.138591
Brighton,MA,2135,42.352247,-71.153
Boston,MA,2135,42.3438,-71.1492
Hyde Park,MA,2136,42.24417,-71.13209
Cambridge,MA,2138,42.3824,-71.1167
Cambridge,MA,2139,42.367661,-71.100966
Cambridge,MA,2140,42.38308,-71.124054
Cambridge,MA,2141,42.367204,-71.084666
Cambridge,MA,2142,42.39212,-71.1317
Somerville,MA,2143,42.386,-71.086577
Somerville,MA,2144,42.406302,-71.126643
Somerville,MA,2145,42.39752,-71.0953
Malden,MA,2148,42.43423,-71.04322
Everett,MA,2149,42.408194,-71.051413
Chelsea,MA,2150,42.406297,-71.037564
Revere,MA,2151,42.416897,-71.00958
Winthrop,MA,2152,42.38527,-70.98065
Medford,MA,2155,42.430137,-71.125617
Quincy,MA,2169,42.24363,-70.9819
Quincy,MA,2170,42.26941,-71.00533
Quincy,MA,2171,42.277678,-71.024891
Arlington,MA,2174,42.429041,-71.167337
Melrose,MA,2176,42.44952,-71.050018
Stoneham,MA,2180,42.48494,-71.09646
Braintree,MA,2184,42.21047,-70.97911
Milton,MA,2186,42.25808,-71.08276
Weymouth,MA,2188,42.1967,-70.94438
Weymouth,MA,2189,42.221206,-70.932074
East Weymouth,MA,2189,42.22075,-70.93975
Weymouth,MA,2190,42.186201,-70.95806
South Weymouth,MA,2190,42.17646,-70.935906
Weymouth,MA,2191,42.239865,-70.948147
North Weymouth,MA,2191,42.24651,-70.94509
Boston,MA,2215,42.352098,-71.121004
Brockton,MA,2301,42.067343,-71.044196
Brockton,MA,2302,42.064935,-71.013139
Avon,MA,2322,42.114301,-71.045027
Bridgewater,MA,2324,41.988951,-70.984792
Carver,MA,2330,41.891675,-70.773606
Duxbury,MA,2332,42.035412,-70.736593
East Bridgewater,MA,2333,42.029893,-70.957235
Halifax,MA,2338,41.99097,-70.85813
Hanover,MA,2339,42.132356,-70.867297
Hanson,MA,2341,42.062137,-70.856325
Holbrook,MA,2343,42.147943,-71.006413
Middleborough,MA,2346,41.8861,-70.91057
Middleboro,MA,2346,41.8949,-70.905578
Middleborough,MA,2346,41.887064,-70.911131
Lakeville,MA,2347,41.792255,-70.983216
Abington,MA,2351,42.118951,-70.953397
North Easton,MA,2356,42.058394,-71.111921
Pembroke,MA,2359,42.044083,-70.823967
Plymouth,MA,2360,41.94917,-70.71289
Kingston,MA,2364,41.984942,-70.720865
Plympton,MA,2367,41.972511,-70.797775
Randolph,MA,2368,42.18378,-71.06511
Rockland,MA,2370,42.12732,-70.922539
South Easton,MA,2375,42.034309,-71.099062
West Bridgewater,MA,2379,42.020833,-71.015158
Whitman,MA,2382,42.08412,-70.951794
Lexington,MA,2420,42.458721,-71.220604
Lexington,MA,2421,42.446136,-71.252638
Brookline,MA,2445,42.3329,-71.1287
Brookline,MA,2446,42.344584,-71.123899
Waltham,MA,2451,42.38225,-71.242815
Waltham,MA,2452,42.40416,-71.25002
Waltham,MA,2453,42.364719,-71.230217
Newton,MA,2458,42.35353,-71.181435
Newton Center,MA,2459,42.308752,-71.190294
Newton,MA,2459,42.30983,-71.19142
Newton Center,MA,2459,42.321656,-71.187882
Newtonville,MA,2460,42.357598,-71.212401
Newton Highlands,MA,2461,42.31314,-71.20238
Newton,MA,2462,42.3309,-71.257837
Newton,MA,2464,42.31544,-71.218153
West Newton,MA,2465,42.3584,-71.22854
Newton,MA,2465,42.34734,-71.224423
Auburndale,MA,2466,42.352307,-71.242106
Newton,MA,2466,42.334538,-71.243414
Chestnut Hill,MA,2467,42.302639,-71.15857
Waban,MA,2468,42.326592,-71.232568
Watertown,MA,2472,42.376552,-71.199274
Arlington,MA,2474,42.404275,-71.145201
Arlington,MA,2476,42.417697,-71.162121
Belmont,MA,2478,42.395292,-71.164859
Wellesley,MA,2481,42.31124,-71.29968
Wellesley,MA,2482,42.304332,-71.297908
Needham,MA,2492,42.28223,-71.255132
Weston,MA,2493,42.360838,-71.295312
Needham,MA,2494,42.29537,-71.24033
Bourne,MA,2532,41.738705,-70.592564
Bournedale,MA,2532,41.764722,-70.571635
Chilmark,MA,2535,41.338734,-70.752986
East Falmouth,MA,2536,41.576144,-70.560696
Teaticket,MA,2536,41.567438,-70.591117
East Sandwich,MA,2537,41.735678,-70.458785
East Wareham,MA,2538,41.75849,-70.67613
Edgartown,MA,2539,41.389305,-70.522777
Falmouth,MA,2540,41.589548,-70.607661
Nantucket,MA,2554,41.273363,-70.098545
North Falmouth,MA,2556,41.638167,-70.621365
Oak Bluffs,MA,2557,41.455721,-70.567226
Onset,MA,2558,41.74451,-70.65846
Pocasset,MA,2559,41.69028,-70.618193
Sandwich,MA,2563,41.75209,-70.496151
Vineyard Haven,MA,2568,41.452801,-70.610357
Wareham,MA,2571,41.755963,-70.687595
Wareham,MA,2572,41.791179,-70.766256
West Tisbury,MA,2575,41.419303,-70.664466
Wareham,MA,2576,41.77065,-70.746876
Hyannis,MA,2601,41.65205,-70.28523
Brewster,MA,2631,41.757407,-70.069145
Centerville,MA,2632,41.646991,-70.352994
Chatham,MA,2633,41.686392,-69.961647
Eastham,MA,2642,41.840926,-69.974059
Forestdale,MA,2644,41.697034,-70.504555
Harwich,MA,2645,41.710397,-70.075687
Marstons Mills,MA,2648,41.660276,-70.387386
Mashpee,MA,2649,41.615271,-70.507204
North Eastham,MA,2651,41.859012,-69.969
Orleans,MA,2653,41.781093,-69.993904
Provincetown,MA,2657,42.051829,-70.18952
South Dennis,MA,2660,41.713458,-70.157254
South Yarmouth,MA,2664,41.677336,-70.194188
Yarmouth,MA,2664,41.646974,-70.204966
Truro,MA,2666,42.017576,-70.071058
Wellfleet,MA,2667,41.941378,-70.023371
West Barnstable,MA,2668,41.69915,-70.327426
West Dennis,MA,2670,41.668558,-70.152455
West Yarmouth,MA,2673,41.674076,-70.245895
Attleboro,MA,2703,41.938584,-71.301561
South Attleboro,MA,2703,41.917505,-71.349773
Attleboro,MA,2703,41.91581,-71.27194
Cuttyhunk,MA,2713,41.422944,-70.931601
Dighton,MA,2715,41.835102,-71.11497
Freetown,MA,2717,41.76137,-71.01474
East Freetown,MA,2717,41.760692,-71.016226
East Taunton,MA,2718,41.871536,-71.041476
Taunton,MA,2718,41.853568,-71.034556
Fairhaven,MA,2719,41.64874,-70.861291
Fall River,MA,2720,41.715328,-71.130052
Fall River,MA,2721,41.672866,-71.169154
Fall River,MA,2723,41.699018,-71.141122
Fall River,MA,2724,41.675287,-71.182871
Somerset,MA,2725,41.7225,-71.17884
Somerset,MA,2726,41.742475,-71.147159
Marion,MA,2738,41.703926,-70.768095
Mattapoisett,MA,2739,41.66051,-70.81386
New Bedford,MA,2740,41.625471,-70.944605
Acushnet,MA,2743,41.72586,-70.90656
New Bedford,MA,2744,41.61955,-70.92728
New Bedford,MA,2745,41.66948,-70.93135
New Bedford,MA,2746,41.659974,-70.929429
North Dartmouth,MA,2747,41.626959,-70.964567
Dartmouth,MA,2747,41.627334,-70.960137
Dartmouth,MA,2748,41.59391,-70.97837
South Dartmouth,MA,2748,41.604887,-70.939705
North Attleborough,MA,2760,41.98012,-71.33428
North Attleboro,MA,2760,41.979276,-71.324427
Plainville,MA,2762,42.01205,-71.30295
North Dighton,MA,2764,41.85205,-71.19713
Norton,MA,2766,41.960579,-71.196757
Raynham,MA,2767,41.945946,-71.035824
Rehoboth,MA,2769,41.84816,-71.25255
Rochester,MA,2770,41.78594,-70.8716
Seekonk,MA,2771,41.797657,-71.316361
Swansea,MA,2777,41.764965,-71.242191
Berkley,MA,2779,41.848295,-71.086556
Taunton,MA,2780,41.879328,-71.057177
Westport,MA,2790,41.65247,-71.08238
Ashaway,RI,2804,41.420569,-71.791192
Barrington,RI,2806,41.747187,-71.321275
Block Island,RI,2807,41.16432,-71.560761
Bradford,RI,2808,41.39841,-71.746852
Bristol,RI,2809,41.68784,-71.269358
Charlestown,RI,2813,41.449822,-71.655812
Chepachet,RI,2814,41.912146,-71.778224
Clayville,RI,2815,41.77221,-71.670978
Coventry,RI,2816,41.71308,-71.551872
West Greenwich,RI,2817,41.619886,-71.683601
East Greenwich,RI,2818,41.638887,-71.483626
Exeter,RI,2822,41.587564,-71.709202
Foster,RI,2825,41.813829,-71.732449
Smithfield,RI,2828,41.870335,-71.549539
Greenville,RI,2828,41.871196,-71.554551
Harrisville,RI,2830,41.965556,-71.678179
Hope,RI,2831,41.735911,-71.562703
Hope Valley,RI,2832,41.510851,-71.712826
Jamestown,RI,2835,41.498778,-71.378622
Little Compton,RI,2837,41.5096,-71.17277
Manville,RI,2838,41.963091,-71.467942
Newport,RI,2840,41.500459,-71.309951
Middletown,RI,2842,41.496863,-71.281285
North Kingstown,RI,2852,41.619459,-71.464806
North Scituate,RI,2857,41.865884,-71.712645
Pascoag,RI,2859,41.938604,-71.674872
Pawtucket,RI,2860,41.868997,-71.384952
Pawtucket,RI,2861,41.888321,-71.364773
Central Falls,RI,2863,41.892346,-71.387999
Cumberland,RI,2864,41.905917,-71.392684
Lincoln,RI,2865,41.903011,-71.456978
Portsmouth,RI,2871,41.616731,-71.244563
Saunderstown,RI,2874,41.499095,-71.511232
Slatersville,RI,2876,42.001732,-71.567004
Tiverton,RI,2878,41.667125,-71.186701
Wakefield,RI,2879,41.445287,-71.495654
Peace Dale,RI,2879,41.45431,-71.500896
Wakefield,RI,2879,41.44659,-71.494976
Kingston,RI,2881,41.494249,-71.516384
Narragansett,RI,2882,41.402108,-71.466124
Warren,RI,2885,41.724437,-71.254071
Warwick,RI,2886,41.684183,-71.46418
Warwick,RI,2888,41.754392,-71.414518
Warwick,RI,2889,41.705785,-71.376004
Westerly,RI,2891,41.401575,-71.829859
West Kingston,RI,2892,41.478391,-71.550449
West Warwick,RI,2893,41.724445,-71.505411
Wood River Junction,RI,2894,41.450085,-71.69645
Woonsocket,RI,2895,42.013377,-71.502032
North Smithfield,RI,2896,41.953963,-71.544601
Wyoming,RI,2898,41.500759,-71.661828
Providence,RI,2903,41.820899,-71.421671
North Providence,RI,2904,41.868306,-71.451115
Providence,RI,2904,41.851013,-71.434121
North Providence,RI,2904,41.861762,-71.469092
Providence,RI,2905,41.807599,-71.4135
Cranston,RI,2905,41.773273,-71.40715
Providence,RI,2905,41.803301,-71.415868
Providence,RI,2906,41.81964,-71.39393
Providence,RI,2907,41.799506,-71.418236
Providence,RI,2908,41.850613,-71.427104
Providence,RI,2909,41.811095,-71.435392
Cranston,RI,2910,41.780173,-71.437864
North Providence,RI,2911,41.857273,-71.47716
East Providence,RI,2914,41.812453,-71.382422
Riverside,RI,2915,41.76358,-71.34186
Rumford,RI,2916,41.841722,-71.360764
Smithfield,RI,2917,41.881123,-71.541584
Johnston,RI,2919,41.834391,-71.548031
Cranston,RI,2920,41.747464,-71.47011
Cranston,RI,2921,41.753181,-71.508067
Amherst,NH,3031,42.867274,-71.631405
Auburn,NH,3032,43.00648,-71.34712
Brookline,NH,3033,42.739439,-71.665266
Candia,NH,3034,43.062262,-71.287983
Chester,NH,3036,42.958527,-71.255391
Deerfield,NH,3037,43.14773,-71.23424
Derry,NH,3038,42.886175,-71.305299
Epping,NH,3042,43.045717,-71.07545
Francestown,NH,3043,42.981583,-71.802573
Fremont,NH,3044,42.985409,-71.130973
Goffstown,NH,3045,43.012413,-71.583711
Dunbarton,NH,3046,43.10034,-71.61077
Greenfield,NH,3047,42.950869,-71.879211
Mason,NH,3048,42.744897,-71.768956
Greenville,NH,3048,42.76529,-71.812514
Hollis,NH,3049,42.747197,-71.594458
Hudson,NH,3051,42.794328,-71.438233
Litchfield,NH,3052,42.838497,-71.477831
Londonderry,NH,3053,42.873547,-71.380315
Merrimack,NH,3054,42.841192,-71.492603
Milford,NH,3055,42.826653,-71.657891
Mont Vernon,NH,3057,42.8921,-71.6751
Nashua,NH,3060,42.75281,-71.464933
Nashua,NH,3062,42.713623,-71.472299
Nashua,NH,3063,42.766101,-71.513449
Nashua,NH,3064,42.768826,-71.475503
New Boston,NH,3070,42.978718,-71.688074
New Ipswich,NH,3071,42.755321,-71.851096
Pelham,NH,3076,42.727506,-71.326842
Raymond,NH,3077,43.034238,-71.193152
Salem,NH,3079,42.765317,-71.19005
Lyndeborough,NH,3082,42.881704,-71.786475
Temple,NH,3084,42.800348,-71.842556
Wilton,NH,3086,42.846701,-71.746708
Windham,NH,3087,42.8,-71.3043
Manchester,NH,3101,42.973994,-71.463589
Manchester,NH,3102,42.993594,-71.505507
Manchester,NH,3103,42.984132,-71.454715
Manchester,NH,3104,43.003377,-71.462783
Hooksett,NH,3106,43.044833,-71.445659
Manchester,NH,3109,42.964637,-71.417279
Bedford,NH,3110,42.937267,-71.503349
Waterville Valley,NH,3215,43.94356,-71.50212
Andover,NH,3216,43.434657,-71.821861
Ashland,NH,3217,43.69656,-71.63445
Belmont,NH,3220,43.450879,-71.480232
Bradford,NH,3221,43.2653,-71.937509
Sutton Mills,NH,3221,43.332419,-71.95458
Bristol,NH,3222,43.593009,-71.737871
Campton,NH,3223,43.851384,-71.634562
Canterbury,NH,3224,43.335411,-71.562309
Ctr Barnstead,NH,3225,43.34853,-71.26332
Ctr Sandwich,NH,3227,43.806157,-71.441016
Center Sandwich,NH,3227,43.811441,-71.44239
Contoocook,NH,3229,43.230411,-71.717537
Hopkinton,NH,3229,43.190452,-71.670587
Contoocook,NH,3229,43.230629,-71.719344
Danbury,NH,3230,43.524556,-71.852145
Epsom,NH,3234,43.210431,-71.362422
Franklin,NH,3235,43.451506,-71.644818
 Franklin,NH,3235,43.451825,-71.662868
Henniker,NH,3242,43.179168,-71.825274
Hill,NH,3243,43.522823,-71.699617
Hillsboro,NH,3244,43.118081,-71.900684
Holderness,NH,3245,43.745626,-71.61869
Laconia,NH,3246,43.557597,-71.47236
Gilford,NH,3249,43.54263,-71.404237
Lincoln,NH,3251,44.043105,-71.67294
Meredith,NH,3253,43.66286,-71.49358
Moultonborough,NH,3254,43.75086,-71.396058
Moultonboro,NH,3254,43.748752,-71.402787
Moultonborough,NH,3254,43.75086,-71.396058
New Hampton,NH,3256,43.60668,-71.65715
New London,NH,3257,43.416467,-71.985548
Chichester,NH,3258,43.25303,-71.37865
North Sutton,NH,3260,43.348483,-71.904249
Northwood,NH,3261,43.20777,-71.1753
Pittsfield,NH,3263,43.3028,-71.3179
Plymouth,NH,3264,43.76509,-71.702957
Rumney,NH,3266,43.79516,-71.80728
Salisbury,NH,3268,43.38204,-71.720509
Sanbornton,NH,3269,43.495467,-71.582987
Pembroke,NH,3275,43.194003,-71.483279
Allenstown,NH,3275,43.12478,-71.45982
Suncook,NH,3275,43.13064,-71.45312
Allenstown,NH,3275,43.130603,-71.451678
Northfield,NH,3276,43.433821,-71.597229
Tilton,NH,3276,43.443472,-71.60344
Northfield,NH,3276,43.441455,-71.592574
Warner,NH,3278,43.282021,-71.815746
Warren,NH,3279,43.92581,-71.89106
Washington,NH,3280,43.175993,-72.114302
Weare,NH,3281,43.127522,-71.758693
Wentworth,NH,3282,43.899202,-71.899312
Thornton,NH,3285,43.89585,-71.664027
Nottingham,NH,3290,43.14596,-71.112659
Concord,NH,3301,43.233857,-71.515166
Penacook,NH,3303,43.279105,-71.601673
Boscawen,NH,3303,43.289962,-71.631047
Webster,NH,3303,43.312996,-71.718736
Bow,NH,3304,43.150392,-71.53886
Loudon,NH,3307,43.28657,-71.47404
Surry,NH,3431,43.013778,-72.323206
Keene,NH,3431,42.952126,-72.321258
North Swanzey,NH,3431,42.9074,-72.260584
Antrim,NH,3440,43.029085,-71.943042
Bennington,NH,3442,43.002384,-71.923733
Chesterfield,NH,3443,42.886369,-72.469174
Dublin,NH,3444,42.90716,-72.07309
Sullivan,NH,3445,43.01115,-72.217419
 Swanzey,NH,3446,42.875119,-72.27963
 Swanzey,NH,3446,42.871677,-72.328968
 Swanzey,NH,3446,42.875119,-72.27963
Swanzey,NH,3446,42.866178,-72.323334
Fitzwilliam,NH,3447,42.772128,-72.153412
Gilsum,NH,3448,43.048431,-72.259252
Hancock,NH,3449,42.975637,-71.980636
Harrisville,NH,3450,42.93331,-72.14603
Hinsdale,NH,3451,42.781968,-72.498925
Jaffrey,NH,3452,42.811421,-72.018581
Marlborough,NH,3455,42.909826,-72.211215
Marlow,NH,3456,43.131041,-72.19925
Nelson,NH,3457,43.013252,-72.155288
Peterborough,NH,3458,42.909929,-71.940794
Rindge,NH,3461,42.750239,-71.99979
Stoddard,NH,3464,43.07864,-72.11763
Troy,NH,3465,42.830924,-72.184732
Westmoreland,NH,3467,42.960258,-72.440322
Winchester,NH,3470,42.767617,-72.376447
Littleton,NH,3561,44.29895,-71.769265
Berlin,NH,3570,44.483725,-71.168006
Bethlehem,NH,3574,44.281395,-71.683128
Colebrook,NH,3576,44.89425,-71.49556
Errol,NH,3579,44.780432,-71.134619
Franconia,NH,3580,44.232477,-71.754155
Gorham,NH,3581,44.390274,-71.17816
Groveton,NH,3582,44.59799,-71.51167
Stark,NH,3582,44.604772,-71.403641
Northumberland,NH,3582,44.598166,-71.513277
Groveton,NH,3582,44.600549,-71.513129
Jefferson,NH,3583,44.406285,-71.472399
Lancaster,NH,3584,44.499632,-71.581198
Landaff,NH,3585,44.16951,-71.89429
Lisbon,NH,3585,44.214115,-71.916399
Milan,NH,3588,44.57338,-71.18402
North Stratford,NH,3590,44.749619,-71.62583
Pittsburg,NH,3592,45.052334,-71.390503
 Stewartstown,NH,3597,44.998784,-71.522598
West Stewartstown,NH,3597,45.096,-71.2725
Whitefield,NH,3598,44.271984,-71.539416
Acworth,NH,3601,43.217192,-72.292706
Alstead,NH,3602,43.149485,-72.356411
Langdon,NH,3602,43.158449,-72.405144
Charlestown,NH,3603,43.232642,-72.422906
Lempster,NH,3605,43.249818,-72.167441
Walpole,NH,3608,43.086103,-72.427985
North Walpole,NH,3609,43.142558,-72.446687
Bath,NH,3740,44.170519,-71.961837
Canaan,NH,3741,43.647796,-72.013415
Claremont,NH,3743,43.37286,-72.347598
Cornish,NH,3745,43.464946,-72.33164
Enfield,NH,3748,43.643598,-72.146274
Grantham,NH,3753,43.491864,-72.134274
Hanover,NH,3755,43.723384,-72.270779
Lebanon,NH,3766,43.645456,-72.254862
Lyme,NH,3768,43.809951,-72.161991
Meriden,NH,3770,43.542346,-72.267982
Monroe,NH,3771,44.258989,-72.052247
Croydon,NH,3773,43.453858,-72.159309
Newport,NH,3773,43.374701,-72.178699
North Haverhill,NH,3774,44.084817,-72.011922
Orford,NH,3777,43.9003,-72.1381
Piermont,NH,3779,43.967916,-72.081918
Sunapee,NH,3782,43.387548,-72.09705
 Lebanon,NH,3784,43.649469,-72.304497
Woodsville,NH,3785,44.144191,-72.025682
Newington,NH,3801,43.106256,-70.829849
Portsmouth,NH,3801,43.038106,-70.768745
Newington,NH,3801,43.096328,-70.796088
Alton,NH,3809,43.437693,-71.213407
Atkinson,NH,3811,42.83938,-71.14544
Bartlett,NH,3812,44.077414,-71.279699
Ctr Conway,NH,3813,43.9918,-71.05712
Ctr Ossipee,NH,3814,43.754124,-71.150696
Center Ossipee,NH,3814,43.755404,-71.15494
Ctr Tuftonboro,NH,3816,43.663002,-71.253892
Chocorua,NH,3817,43.883279,-71.225222
Conway,NH,3818,43.979661,-71.12576
Danville,NH,3819,42.9213,-71.12604
Dover,NH,3820,43.195327,-70.871921
Madbury,NH,3823,43.165905,-70.942797
Durham,NH,3824,43.141041,-70.916874
Barrington,NH,3825,43.235696,-70.991403
East Kingston,NH,3827,42.91587,-70.99155
South Hampton,NH,3827,42.881439,-70.963462
Exeter,NH,3833,43.015558,-71.000606
Brentwood,NH,3833,42.984353,-71.066558
Farmington,NH,3835,43.394487,-71.073621
Freedom,NH,3836,43.807612,-71.033929
Gilmanton Iw,NH,3837,43.423383,-71.332256
Gonic,NH,3839,43.275167,-70.975151
Greenland,NH,3840,43.034071,-70.833647
Hampstead,NH,3841,42.87588,-71.17663
Hampton,NH,3842,42.937185,-70.835321
Hampton Falls,NH,3844,42.916691,-70.866837
Jackson,NH,3846,44.146573,-71.180188
Kingston,NH,3848,42.939016,-71.055148
Madison,NH,3849,43.89689,-71.151852
Milton,NH,3851,43.410208,-70.99057
New Castle,NH,3854,43.069876,-70.722744
New Durham,NH,3855,43.433649,-71.161588
Newfields,NH,3856,43.03486,-70.944951
Newmarket,NH,3857,43.072326,-70.951586
Newton,NH,3858,42.86576,-71.06459
North Conway,NH,3860,44.05368,-71.1284
Lee,NH,3861,43.12895,-71.0047
North Hampton,NH,3862,42.971365,-70.823002
Plaistow,NH,3865,42.835599,-71.096208
Rochester,NH,3867,43.300169,-70.976998
 Rochester,NH,3868,43.322066,-70.948723
Rochester,NH,3868,43.325914,-70.953966
Rollinsford,NH,3869,43.231958,-70.823633
Rye,NH,3870,43.028599,-70.755823
Sanbornville,NH,3872,43.553278,-71.037052
Sandown,NH,3873,42.92464,-71.186303
Seabrook,NH,3874,42.881246,-70.847226
Somersworth,NH,3878,43.256352,-70.875468
Effingham,NH,3882,43.793852,-71.041546
Strafford,NH,3884,43.26969,-71.127389
Stratham,NH,3885,42.981645,-70.900243
Tamworth,NH,3886,43.839,-71.26516
Wolfeboro,NH,3894,43.581696,-71.200138
Berwick,ME,3901,43.289328,-70.825799
Eliot,ME,3903,43.12379,-70.788055
Kittery,ME,3904,43.114742,-70.743255
Kittery Point,ME,3905,43.083646,-70.699795
North Berwick,ME,3906,43.306318,-70.780788
South Berwick,ME,3908,43.233067,-70.809897
York,ME,3909,43.154915,-70.629167
Acton,ME,4001,43.506933,-70.897184
Lyman,ME,4002,43.487103,-70.633647
Alfred,ME,4002,43.471277,-70.722508
Biddeford,ME,4005,43.496396,-70.471004
Dayton,ME,4005,43.544579,-70.592899
Bowdoinham,ME,4008,44.012316,-69.895206
Bridgton,ME,4009,44.051418,-70.703119
Brunswick,ME,4011,43.901852,-69.977563
Chebeague Island,ME,4017,43.729324,-70.128111
Cornish,ME,4020,43.802056,-70.805518
Cumberland Center,ME,4021,43.796991,-70.251392
Denmark,ME,4022,43.962846,-70.860905
East Lebanon,ME,4027,43.401663,-70.910185
East Sebago,ME,4029,43.855222,-70.638109
East Waterboro,ME,4030,43.586245,-70.705953
Freeport,ME,4032,43.856151,-70.107312
Fryeburg,ME,4037,44.014805,-70.974574
Gorham,ME,4038,43.674174,-70.447171
Gray,ME,4039,43.903129,-70.349056
Harrison,ME,4040,44.086434,-70.675204
Hiram,ME,4041,43.810771,-70.869503
Hollis,ME,4042,43.637121,-70.602569
Kennebunk,ME,4043,43.416501,-70.563727
Arundel,ME,4046,43.446537,-70.539381
Kennebunkport,ME,4046,43.362498,-70.469867
Parsonsfield,ME,4047,43.759378,-70.928818
Limerick,ME,4048,43.694757,-70.790205
Limington,ME,4049,43.728659,-70.709401
Long Island,ME,4050,43.684256,-70.162794
Lovell,ME,4051,44.1229,-70.891175
Naples,ME,4055,43.958724,-70.572421
Windham,ME,4062,43.784869,-70.412832
Ocean Park,ME,4063,43.5181,-70.3711
Old Orchard Beach,ME,4064,43.512473,-70.393615
Pownal,ME,4069,43.896241,-70.192561
Raymond,ME,4071,43.937325,-70.446298
Saco,ME,4072,43.49936,-70.442756
Sanford,ME,4073,43.453864,-70.783848
Scarborough,ME,4074,43.558032,-70.364856
Shapleigh,ME,4076,43.532968,-70.851096
Harpswell,ME,4079,43.837539,-69.914752
Springvale,ME,4083,43.461052,-70.78037
Standish,ME,4084,43.696958,-70.598658
Steep Falls,ME,4085,43.783654,-70.636946
Topsham,ME,4086,43.948016,-69.965834
Waterboro,ME,4087,43.5367,-70.724388
Waterford,ME,4088,44.189483,-70.722823
Wells,ME,4090,43.320548,-70.594258
West Baldwin,ME,4091,43.807619,-70.72305
Westbrook,ME,4092,43.673455,-70.35569
Buxton,ME,4093,43.694919,-70.596611
West Newfield,ME,4095,43.654993,-70.839381
Yarmouth,ME,4096,43.796015,-70.203272
North Yarmouth,ME,4097,43.834715,-70.246997
Portland,ME,4101,43.678172,-70.317687
Portland,ME,4102,43.650414,-70.267557
Portland,ME,4103,43.69697,-70.293606
Falmouth,ME,4105,43.688106,-70.231919
South Portland,ME,4106,43.638716,-70.308806
Cape Elizabeth,ME,4107,43.591155,-70.229394
Peaks Island,ME,4108,43.660712,-70.197002
Auburn,ME,4210,44.14608,-70.224077
Andover,ME,4216,44.633888,-70.754052
Bethel,ME,4217,44.403284,-70.784062
Bryant Pond,ME,4219,44.398053,-70.645448
Buckfield,ME,4220,44.298381,-70.359811
Canton,ME,4221,44.436862,-70.318733
Durham,ME,4222,43.971376,-70.128293
Dixfield,ME,4224,44.540334,-70.453157
Greene,ME,4236,44.18829,-70.14914
Hebron,ME,4238,44.229969,-70.350202
Jay,ME,4239,44.495688,-70.203884
Lewiston,ME,4240,44.093458,-70.202311
Lisbon,ME,4250,44.022555,-70.087766
Lisbon Falls,ME,4252,44.003017,-70.070481
Livermore,ME,4253,44.43774,-70.20118
Livermore Falls,ME,4254,44.470586,-70.180521
Mechanic Falls,ME,4256,44.105367,-70.385289
Mexico,ME,4257,44.5348,-70.50627
Minot,ME,4258,44.117217,-70.332539
Monmouth,ME,4259,44.254729,-70.038035
New Gloucester,ME,4260,43.983368,-70.290553
Leeds,ME,4263,44.295565,-70.117031
Norway,ME,4268,44.212019,-70.535206
Otisfield,ME,4270,44.06172,-70.53439
Oxford,ME,4270,44.134209,-70.496154
Poland,ME,4274,44.0639,-70.397368
Rumford,ME,4276,44.553192,-70.553624
Sabattus,ME,4280,44.135379,-70.056572
Wales,ME,4280,44.162059,-70.061273
South Paris,ME,4281,44.211675,-70.527404
Turner,ME,4282,44.270149,-70.223385
Wayne,ME,4284,44.354236,-70.0699
Bowdoin,ME,4287,44.030312,-69.938295
West Paris,ME,4289,44.325435,-70.571039
Peru,ME,4290,44.523424,-70.453487
Sumner,ME,4292,44.362116,-70.385014
Wilton,ME,4294,44.590379,-70.212955
Augusta,ME,4330,44.320855,-69.760915
Sidney,ME,4330,44.44058,-69.744096
Chelsea,ME,4330,44.267371,-69.698965
Dresden,ME,4342,44.128223,-69.747246
Farmingdale,ME,4344,44.266129,-69.799676
Gardiner,ME,4345,44.218766,-69.781367
West Gardiner,ME,4345,44.22487,-69.87774
Gardiner,ME,4345,44.22774,-69.789276
Pittston,ME,4345,44.221649,-69.755378
Randolph,ME,4346,44.23431,-69.767568
Hallowell,ME,4347,44.29312,-69.800819
Jefferson,ME,4348,44.204086,-69.454783
Somerville,ME,4348,44.307795,-69.453955
Fayette,ME,4349,44.4073,-70.039147
Litchfield,ME,4350,44.130775,-69.965736
Manchester,ME,4351,44.325612,-69.862514
Mt Vernon,ME,4352,44.462689,-69.972829
Whitefield,ME,4353,44.223351,-69.603029
Palermo,ME,4354,44.387453,-69.465972
Readfield,ME,4355,44.396484,-69.953953
Richmond,ME,4357,44.084574,-69.80714
South China,ME,4358,44.43998,-69.527236
South Gardiner,ME,4359,44.175147,-69.759383
Windsor,ME,4363,44.300906,-69.584628
Winthrop,ME,4364,44.30501,-69.967843
Bangor,ME,4401,44.806359,-68.762312
Hermon,ME,4401,44.821116,-68.895767
Glenburn,ME,4401,44.916015,-68.848362
Veazie,ME,4401,44.832767,-68.707817
Aurora,ME,4408,44.864447,-68.307777
Bradford,ME,4410,45.080106,-68.942046
Bradley,ME,4411,44.918627,-68.625506
Brewer,ME,4412,44.78179,-68.75569
Brownville,ME,4414,45.322409,-69.041936
Bucksport,ME,4416,44.575602,-68.780416
Greenbush,ME,4418,45.11963,-68.61005
Carmel,ME,4419,44.839261,-69.019692
Castine,ME,4421,44.390507,-68.799046
Charleston,ME,4422,45.092219,-69.0924
Danforth,ME,4424,45.663014,-67.865801
Dover Foxcroft,ME,4426,45.194224,-69.226913
East Corinth,ME,4427,44.998018,-69.018666
Eddington,ME,4428,44.829075,-68.659315
Dedham,ME,4429,44.727268,-68.623605
Holden,ME,4429,44.74059,-68.61867
East Millinocket,ME,4430,45.631721,-68.571968
Enfield,ME,4433,45.246279,-68.587602
Etna,ME,4434,44.743527,-69.097841
Frankfort,ME,4438,44.609141,-68.934604
Greenville,ME,4441,45.458432,-69.597956
Guilford,ME,4443,45.174351,-69.378661
Hampden,ME,4444,44.741078,-68.836771
Newburgh,ME,4444,44.7293,-68.97893
Howland,ME,4448,45.247618,-68.661996
Hudson,ME,4449,44.98027,-68.87317
Kenduskeag,ME,4450,44.92506,-68.93324
Kingman,ME,4451,45.550683,-68.194352
Lagrange,ME,4453,45.16715,-68.84406
Lee,ME,4455,45.363917,-68.28463
Levant,ME,4456,44.860748,-68.999132
Lincoln,ME,4457,45.363643,-68.507515
Medway,ME,4460,45.61736,-68.554587
Milford,ME,4461,44.943058,-68.639929
Millinocket,ME,4462,45.653362,-68.704832
Milo,ME,4463,45.250187,-68.979575
Old Town,ME,4468,44.932178,-68.653663
Alton,ME,4468,45.045522,-68.733984
Indian Island,ME,4468,44.952447,-68.647007
Orland,ME,4472,44.5699,-68.73673
Orono,ME,4473,44.881901,-68.675702
Orrington,ME,4474,44.72749,-68.81332
Penobscot,ME,4476,44.47061,-68.70347
Sangerville,ME,4479,45.163217,-69.351112
Springfield,ME,4487,45.39389,-68.14538
Stetson,ME,4488,44.897719,-69.106617
Topsfield,ME,4490,45.426135,-67.717949
Vanceboro,ME,4491,45.565304,-67.434591
Winn,ME,4495,45.428917,-68.31885
Winterport,ME,4496,44.635911,-68.859558
Bath,ME,4530,43.918398,-69.826973
West Bath,ME,4530,43.923053,-69.859984
Boothbay Harbor,ME,4538,43.864336,-69.629279
Damariscotta,ME,4543,44.031853,-69.524209
Friendship,ME,4547,43.983537,-69.332256
Georgetown,ME,4548,43.8009,-69.756483
Newcastle,ME,4553,44.016317,-69.622834
Nobleboro,ME,4555,44.080646,-69.480174
Edgecomb,ME,4556,43.994418,-69.638356
Pemaquid,ME,4558,43.90134,-69.50415
Phippsburg,ME,4562,43.808758,-69.820688
Cushing,ME,4563,44.020989,-69.251467
South Bristol,ME,4568,43.86794,-69.560013
Waldoboro,ME,4572,44.124406,-69.309207
Washington,ME,4574,44.267286,-69.37236
Southport,ME,4576,43.829025,-69.674367
Wiscasset,ME,4578,44.023227,-69.669959
Trenton,ME,4605,44.455047,-68.36431
Ellsworth,ME,4605,44.57207,-68.45563
Lamoine,ME,4605,44.478928,-68.340411
Otis,ME,4605,44.671701,-68.426724
Ellsworth,ME,4605,44.554862,-68.431449
Addison,ME,4606,44.619888,-67.700571
Bar Harbor,ME,4609,44.387213,-68.21581
Beals,ME,4611,44.516095,-67.612524
Blue Hill,ME,4614,44.414819,-68.592416
Brooklin,ME,4616,44.267971,-68.567722
Brooksville,ME,4617,44.392808,-68.758098
Calais,ME,4619,45.163934,-67.241779
Cherryfield,ME,4622,44.603701,-67.934159
Cutler,ME,4626,44.67024,-67.25566
Deer Isle,ME,4627,44.242129,-68.680645
Edmunds Township,ME,4628,44.89091,-67.22511
Dennysville,ME,4628,44.9161,-67.3367
East Machias,ME,4630,44.741193,-67.390191
Eastport,ME,4631,44.908046,-66.992157
Eastbrook,ME,4634,44.68537,-68.284218
Franklin,ME,4634,44.589652,-68.222779
Frenchboro,ME,4635,44.115864,-68.360615
Hancock,ME,4640,44.530353,-68.251124
Harrington,ME,4643,44.620088,-67.841654
Isle Au Haut,ME,4645,44.085574,-68.623926
Islesford,ME,4646,44.261922,-68.234282
Jonesboro,ME,4648,44.653587,-67.583535
Jonesport,ME,4649,44.556222,-67.61435
Lubec,ME,4652,44.856349,-66.990466
Bass Harbor,ME,4653,44.2537,-68.34937
Machias,ME,4654,44.713845,-67.469292
Machiasport,ME,4655,44.666,-67.3895
Milbridge,ME,4658,44.53112,-67.884941
Mt Desert,ME,4660,44.372267,-68.301057
Northeast Harbor,ME,4662,44.29311,-68.292019
Sullivan,ME,4664,44.511856,-68.166537
Charlotte,ME,4666,44.998248,-67.261636
Pembroke,ME,4666,44.940416,-67.218847
Perry,ME,4667,44.954563,-67.100916
Princeton,ME,4668,45.215636,-67.553855
Prospect Harbor,ME,4669,44.405991,-68.026698
Robbinston,ME,4671,45.0629,-67.1267
Sedgwick,ME,4676,44.360078,-68.664251
Southwest Harbor,ME,4679,44.29559,-68.32757
Steuben,ME,4680,44.511618,-67.961122
Stonington,ME,4681,44.2124,-68.7041
Surry,ME,4684,44.499254,-68.503346
Swans Island,ME,4685,44.154523,-68.451526
Wesley,ME,4686,44.953236,-67.663321
Whiting,ME,4691,44.79068,-67.17568
Alexander,ME,4694,45.10736,-67.43306
Baileyville,ME,4694,45.156345,-67.413139
Houlton,ME,4730,46.11126,-67.845125
Hodgdon,ME,4730,46.056865,-67.862772
Ashland,ME,4732,46.627073,-68.393203
Connor Twp,ME,4736,46.974288,-68.035724
Woodland,ME,4736,46.878827,-68.116899
Caribou,ME,4736,46.863806,-68.031049
Eagle Lake,ME,4739,47.044088,-68.595359
Easton,ME,4740,46.635592,-67.901248
Ft Fairfield,ME,4742,46.767546,-67.840319
Ft Kent,ME,4743,47.248853,-68.588735
Frenchville,ME,4745,47.277707,-68.424142
Dyer Brook,ME,4747,46.085234,-68.181711
Limestone,ME,4750,46.906749,-67.828921
Caswell,ME,4750,46.979445,-67.820736
Madawaska,ME,4756,47.352965,-68.325801
Mapleton,ME,4757,46.680954,-68.150139
Mars Hill,ME,4758,46.515477,-67.861115
Monticello,ME,4760,46.308653,-67.840164
New Sweden,ME,4762,46.941522,-68.165221
Patten,ME,4765,45.9899,-68.4954
Presque Isle,ME,4769,46.686307,-68.004309
St Agatha,ME,4772,47.243106,-68.313869
St Francis,ME,4774,47.1691,-68.895581
Allagash,ME,4774,47.1567,-68.8031
Stacyville,ME,4777,45.926201,-68.439609
Sinclair,ME,4779,47.164317,-68.265294
Wallagrass,ME,4781,47.158285,-68.570799
Van Buren,ME,4785,47.160732,-67.941252
Washburn,ME,4786,46.791165,-68.150809
Rockland,ME,4841,44.090714,-69.109018
Camden,ME,4843,44.212344,-69.072022
Hope,ME,4847,44.22368,-69.22182
Islesboro,ME,4848,44.2704,-68.91636
Lincolnville,ME,4849,44.294807,-69.11043
Northport,ME,4849,44.38214,-68.978849
Matinicus Isle Plantation,ME,4851,43.86195,-68.89556
Monhegan Plantation,ME,4852,43.765333,-69.311927
North Haven,ME,4853,44.151137,-68.877497
Owls Head,ME,4854,44.07352,-69.099892
Rockport,ME,4856,44.189017,-69.100509
South Thomaston,ME,4858,44.050235,-69.129707
Tenants Harbor,ME,4860,43.966289,-69.213548
Thomaston,ME,4861,44.080621,-69.186057
Union,ME,4862,44.28278,-69.25904
Vinalhaven,ME,4863,44.048692,-68.821811
Warren,ME,4864,44.125956,-69.239155
Waterville,ME,4901,44.552031,-69.64257
Winslow,ME,4901,44.551015,-69.623669
Benton,ME,4901,44.588815,-69.578214
Albion,ME,4910,44.530945,-69.440499
Anson,ME,4911,44.797919,-69.88973
Athens,ME,4912,44.923483,-69.671872
Waldo,ME,4915,44.44498,-69.06113
Belfast,ME,4915,44.413336,-69.023521
Swanville,ME,4915,44.521874,-69.001823
Belgrade,ME,4917,44.453719,-69.834012
Bingham,ME,4920,45.072102,-69.894704
Brooks,ME,4921,44.554244,-69.128285
Canaan,ME,4924,44.763372,-69.571373
Clinton,ME,4927,44.639949,-69.500756
Corinna,ME,4928,44.919419,-69.256982
Dexter,ME,4930,45.025871,-69.297162
Fairfield,ME,4937,44.590041,-69.605659
Farmington,ME,4938,44.638574,-70.131721
Harmony,ME,4942,44.975431,-69.548557
Hartland,ME,4943,44.885449,-69.445295
Hinckley,ME,4944,0,0
Jackman,ME,4945,45.637794,-70.263577
Kingfield,ME,4947,44.953074,-70.15855
Liberty,ME,4949,44.396491,-69.313918
Madison,ME,4950,44.806769,-69.884783
Monroe,ME,4951,44.614712,-69.021305
Morrill,ME,4952,44.442948,-69.149127
Newport,ME,4953,44.882513,-69.2935
New Sharon,ME,4955,44.610921,-70.03365
Norridgewock,ME,4957,44.712109,-69.799036
North Anson,ME,4958,44.861452,-69.889267
Oakland,ME,4963,44.551102,-69.717667
Phillips,ME,4966,44.828365,-70.357605
Pittsfield,ME,4967,44.787658,-69.393248
Rangeley,ME,4970,44.97341,-70.65297
St Albans,ME,4971,44.903343,-69.419233
Searsmont,ME,4973,44.370894,-69.203944
Searsport,ME,4974,44.464269,-68.924295
Skowhegan,ME,4976,44.760424,-69.719004
Cornville,ME,4976,0,0
Solon,ME,4979,44.946592,-69.85322
Stockton Springs,ME,4981,44.4967,-68.858594
Stratton,ME,4982,45.141059,-70.438189
Salem,ME,4983,44.902809,-70.268506
Strong,ME,4983,44.814775,-70.219315
Thorndike,ME,4986,44.553124,-69.271158
Troy,ME,4987,44.663254,-69.261432
Unity,ME,4988,44.61392,-69.330666
Vassalboro,ME,4989,44.437875,-69.653315
White River Junction,VT,5001,43.688167,-72.319946
Ascutney,VT,5030,43.411236,-72.410092
Barnard,VT,5031,43.7286,-72.6194
Bethel,VT,5032,43.831755,-72.642774
Bradford,VT,5033,44.002602,-72.122429
Bridgewater,VT,5034,43.588098,-72.624342
Brookfield,VT,5036,44.016323,-72.606722
Brownsville,VT,5037,43.4625,-72.4869
Chelsea,VT,5038,43.986919,-72.447086
East Corinth,VT,5040,44.07911,-72.262
Fairlee,VT,5045,43.90477,-72.149145
Hartland,VT,5048,43.538141,-72.394228
Newbury,VT,5051,44.079042,-72.060082
Norwich,VT,5055,43.712971,-72.306369
Quechee,VT,5059,43.649324,-72.416816
Braintree,VT,5060,43.95592,-72.72327
Randolph,VT,5060,43.930742,-72.659853
Reading,VT,5062,43.45361,-72.53721
Sharon,VT,5065,43.78496,-72.456347
South Pomfret,VT,5067,43.653476,-72.52885
South Royalton,VT,5068,43.819251,-72.517359
South Strafford,VT,5070,43.835165,-72.36618
Thetford,VT,5074,43.819224,-72.231111
Tunbridge,VT,5077,43.922347,-72.471366
Wells River,VT,5081,44.155452,-72.083241
West Fairlee,VT,5083,43.907505,-72.261451
Windsor,VT,5089,43.480583,-72.394275
Woodstock,VT,5091,43.621917,-72.519705
Bellows Falls,VT,5101,43.132876,-72.446292
Chester,VT,5143,43.264531,-72.595628
Grafton,VT,5146,43.171256,-72.605625
Londonderry,VT,5148,43.237054,-72.84817
Ludlow,VT,5149,43.397221,-72.688516
Proctorsville,VT,5153,43.384026,-72.637736
Saxtons River,VT,5154,43.140491,-72.509387
Springfield,VT,5156,43.280731,-72.477906
Westminster,VT,5158,43.07038,-72.46372
Bennington,VT,5201,42.886306,-73.191667
Arlington,VT,5250,43.06593,-73.151146
Dorset,VT,5251,43.221917,-73.065721
Manchester Center,VT,5255,43.175528,-73.05229
North Bennington,VT,5257,42.929987,-73.244521
Pownal,VT,5261,42.800196,-73.218058
Shaftsbury,VT,5262,42.944908,-73.208114
Brattleboro,VT,5301,42.840171,-72.557947
Guilford,VT,5301,42.800639,-72.622544
Brattleboro,VT,5301,42.853708,-72.597097
East Dover,VT,5341,42.9467,-72.79295
Jacksonville,VT,5342,42.796821,-72.821848
Jamaica,VT,5343,43.104252,-72.775189
Marlboro,VT,5344,42.868726,-72.719597
Newfane,VT,5345,42.960212,-72.650052
East Dummerston,VT,5346,42.93336,-72.53784
Putney,VT,5346,42.986183,-72.528759
Readsboro,VT,5350,42.771764,-72.94045
Stramford,VT,5352,42.754764,-73.067463
Townshend,VT,5353,43.046587,-72.666709
Vernon,VT,5354,42.776028,-72.518572
Wardsboro,VT,5355,43.048294,-72.78734
West Halifax,VT,5358,42.784296,-72.768616
Windham,VT,5359,43.165774,-72.725291
Wilmington,VT,5363,42.866031,-72.869351
Burlington,VT,5401,44.513156,-73.243183
South Burlington,VT,5403,44.471347,-73.165483
Winooski,VT,5404,44.501028,-73.180459
Burlington,VT,5408,44.496138,-73.235878
Alburg,VT,5440,44.979,-73.29818
Bakersfield,VT,5441,44.783874,-72.802965
Bristol,VT,5443,44.138061,-73.077149
Lincoln,VT,5443,44.097557,-72.986111
Bristol,VT,5443,44.135019,-73.091933
Cambridge,VT,5444,44.67122,-72.92334
Charlotte,VT,5445,44.315143,-73.226561
Colchester,VT,5446,44.502214,-73.144846
Enosburg Falls,VT,5450,44.90557,-72.804165
Essex Junction,VT,5452,44.497764,-73.108907
Fairfax,VT,5454,44.663645,-73.012539
Fairfield,VT,5455,44.800928,-72.947688
Ferrisburgh,VT,5456,44.206737,-73.247968
Franklin,VT,5457,44.984244,-72.920148
Grand Isle,VT,5458,44.715647,-73.296365
Highgate Center,VT,5459,44.941513,-73.044212
Hinesburg,VT,5461,44.344246,-73.109829
Huntington,VT,5462,44.294681,-72.966229
Isle La Motte,VT,5463,44.884695,-73.348093
Jeffersonville,VT,5464,44.644542,-72.826988
Jericho,VT,5465,44.506167,-72.995262
Milton,VT,5468,44.629216,-73.119049
Monkton,VT,5469,44.244252,-73.138808
Montgomery Center,VT,5471,44.886622,-72.616363
New Haven,VT,5472,44.125426,-73.153262
North Hero,VT,5474,44.850755,-73.263515
Richford,VT,5476,44.972348,-72.766317
Richmond,VT,5477,44.412118,-72.993314
St Albans,VT,5478,44.808415,-73.083132
Shelburne,VT,5482,44.380593,-73.235159
Sheldon,VT,5483,44.900639,-72.969486
South Hero,VT,5486,44.63576,-73.30236
Starksboro,VT,5487,44.223393,-73.057527
Swanton,VT,5488,44.928075,-73.101739
Underhill Center,VT,5490,44.508246,-72.895303
Addison,VT,5491,44.087932,-73.305126
Vergennes,VT,5491,44.166966,-73.248127
Waterville,VT,5492,44.726872,-72.749515
Westford,VT,5494,44.602809,-73.018852
Williston,VT,5495,44.440293,-73.073621
Berlin,VT,5602,44.214532,-72.571836
Middlesex,VT,5602,44.350932,-72.602882
Montpelier,VT,5602,44.26042,-72.58596
Barre,VT,5641,44.188968,-72.493771
Cabot,VT,5647,44.403403,-72.309301
East Barre,VT,5649,44.148672,-72.403505
East Montpelier,VT,5651,44.286931,-72.495309
Eden,VT,5652,44.70412,-72.563679
Hyde Park,VT,5655,44.591938,-72.613473
Johnson,VT,5656,44.636809,-72.674832
Lake Elmore,VT,5657,44.5674,-72.5727
Moretown,VT,5660,44.254441,-72.786659
Morrisville,VT,5661,44.562781,-72.590199
Northfield,VT,5663,44.154486,-72.662225
Plainfield,VT,5667,44.319605,-72.452042
Roxbury,VT,5669,44.09231,-72.73313
Stowe,VT,5672,44.462779,-72.683869
Fayston,VT,5673,44.17961,-72.88286
Waitsfield,VT,5673,44.196559,-72.819867
Warren,VT,5674,44.113883,-72.851308
Washington,VT,5675,44.107958,-72.43163
Waterbury,VT,5676,44.339057,-72.753194
Duxbury,VT,5676,44.32282,-72.757171
Bolton,VT,5676,44.373502,-72.876706
Williamstown,VT,5679,44.12368,-72.545636
Wolcott,VT,5680,44.538219,-72.453115
Woodbury,VT,5681,44.450174,-72.416278
Worcester,VT,5682,44.37291,-72.54791
Rutland,VT,5701,43.613181,-72.97972
Rutland Town,VT,5701,43.63806,-72.96309
Rutland,VT,5701,43.610089,-72.970514
Brandon,VT,5733,43.8266,-73.055299
Leicester,VT,5733,43.86677,-73.108848
Brandon,VT,5733,43.767101,-73.051525
Sudbury,VT,5733,43.822319,-73.187061
Bridport,VT,5734,43.984097,-73.313702
Castleton,VT,5735,43.620079,-73.211644
Chittenden,VT,5737,43.701018,-72.952362
Cuttingsville,VT,5738,43.52955,-72.831952
Danby,VT,5739,43.349957,-72.995145
Benson,VT,5743,43.70687,-73.30321
Fair Haven,VT,5743,43.594494,-73.264565
Killington,VT,5751,43.659304,-72.791482
Middlebury,VT,5753,44.005792,-73.162527
Cornwall,VT,5753,43.96374,-73.20647
Middletown Springs,VT,5757,43.486097,-73.117793
Mt Holly,VT,5758,43.44586,-72.823237
North Clarendon,VT,5759,43.56348,-72.96833
Orwell,VT,5760,43.804478,-73.299269
Pittsford,VT,5763,43.705731,-73.018941
Poultney,VT,5764,43.524437,-73.237676
Proctor,VT,5765,43.661315,-73.038829
Ripton,VT,5766,43.985034,-73.038012
Rochester,VT,5767,43.871327,-72.808899
Salisbury,VT,5769,43.919551,-73.118044
Shoreham,VT,5770,43.891665,-73.316538
Stockbridge,VT,5772,43.764,-72.71752
Tinmouth,VT,5773,43.449679,-73.051028
Wallingford,VT,5773,43.470501,-72.975131
Wells,VT,5774,43.418002,-73.207183
West Pawlet,VT,5775,43.384557,-73.225599
West Rutland,VT,5777,43.595345,-73.051783
Whiting,VT,5778,43.858215,-73.201458
St Johnsbury,VT,5819,44.416493,-72.024436
Waterford,VT,5819,44.402823,-71.927641
Albany,VT,5820,44.738248,-72.376805
Barnet,VT,5821,44.30597,-72.08083
Barton,VT,5822,44.748912,-72.179823
Concord,VT,5824,44.426226,-71.890293
Coventry,VT,5825,44.862672,-72.264626
Craftsbury Common,VT,5827,44.654321,-72.381671
Danville,VT,5828,44.410896,-72.143208
Derby,VT,5829,44.949194,-72.131154
Derby Line,VT,5830,45.001446,-72.118366
East Haven,VT,5837,44.639852,-71.891755
Glover,VT,5839,44.706291,-72.188887
Greensboro,VT,5841,44.579962,-72.295385
Hardwick,VT,5843,44.503304,-72.368202
Irasburg,VT,5845,44.803603,-72.272929
Island Pond,VT,5846,44.821442,-71.894021
Lowell,VT,5847,44.80497,-72.44877
Lyndonville,VT,5851,44.5464,-71.985215
Morgan,VT,5853,44.91533,-72.012984
Newport,VT,5855,44.944886,-72.191896
Newport Center,VT,5857,44.951502,-72.306379
Jay,VT,5859,44.948483,-72.438629
North Troy,VT,5859,44.995869,-72.405462
Brownington,VT,5860,44.81545,-72.13317
Orleans,VT,5860,44.782634,-72.220225
Peacham,VT,5862,44.326028,-72.166493
Sheffield,VT,5866,44.602911,-72.119445
Sutton,VT,5867,44.633597,-72.027967
West Burke,VT,5871,44.624605,-71.959915
Newark,VT,5871,44.690005,-71.951614
West Charleston,VT,5872,44.84297,-72.02028
Walden,VT,5873,44.45253,-72.2197
Canaan,VT,5903,44.995415,-71.537857
Gilman,VT,5904,44.411902,-71.718468
Guildhall,VT,5905,44.495594,-71.596348
Avon,CT,6001,41.774945,-72.854888
Bloomfield,CT,6002,41.827837,-72.726605
Bristol,CT,6010,41.699225,-72.965247
Bristol,CT,6011,41.669412,-72.945304
Burlington,CT,6013,41.779884,-72.98668
East Windsor,CT,6016,41.910867,-72.5464
Broad Brook,CT,6016,41.92206,-72.546725
Canaan,CT,6018,42.032883,-73.332469
Canton,CT,6019,41.826492,-72.916763
Colebrook,CT,6021,41.987944,-73.092439
East Berlin,CT,6023,41.614967,-72.720256
East Granby,CT,6026,41.94357,-72.731218
East Hartland,CT,6027,41.996994,-72.906893
Ellington,CT,6029,41.903981,-72.466905
Falls Village,CT,6031,41.955497,-73.359313
Farmington,CT,6032,41.751187,-72.867518
Glastonbury,CT,6033,41.701428,-72.546718
Granby,CT,6035,41.93713,-72.794222
Berlin,CT,6037,41.621781,-72.752822
Kensington,CT,6037,41.637199,-72.784611
Lakeville,CT,6039,41.971547,-73.438737
Manchester,CT,6040,41.781711,-72.561713
Manchester,CT,6042,41.795024,-72.526566
Bolton,CT,6043,41.776466,-72.441932
Manchester,CT,6045,41.760819,-72.562208
New Britain,CT,6051,41.665471,-72.761646
New Britain,CT,6052,41.65924,-72.80485
New Britain,CT,6053,41.686771,-72.806085
New Hartford,CT,6057,41.827044,-73.014033
Norfolk,CT,6058,41.987147,-73.189595
Plainville,CT,6062,41.684044,-72.886005
Barkhamsted,CT,6063,41.910933,-72.989735
Vernon,CT,6066,41.840225,-72.46677
Rockville,CT,6066,41.86904,-72.46223
Vernon,CT,6066,41.855612,-72.491228
Talcottville,CT,6066,41.814608,-72.502724
Rocky Hill,CT,6067,41.666931,-72.649555
Sharon,CT,6069,41.87661,-73.478453
Simsbury,CT,6070,41.88104,-72.803643
Somers,CT,6071,42.031379,-72.500893
South Glastonbury,CT,6073,41.637665,-72.6152
South Windsor,CT,6074,41.84422,-72.555321
Stafford Springs,CT,6076,41.971519,-72.301838
Union,CT,6076,41.985027,-72.157036
Staffordville,CT,6077,41.99365,-72.25731
Suffield,CT,6078,41.951063,-72.637932
Tariffville,CT,6081,41.910244,-72.767958
Enfield,CT,6082,42.01531,-72.512996
Enfield,CT,6083,41.90914,-72.57802
Tolland,CT,6084,41.869909,-72.371858
Unionville,CT,6085,41.758355,-72.890428
East Windsor,CT,6088,41.930763,-72.613189
Weatogue,CT,6089,41.840812,-72.822617
West Granby,CT,6090,41.9434,-72.887879
Stamford,CT,6092,41.059308,-73.536454
West Simsbury,CT,6092,41.860341,-72.862321
West Suffield,CT,6093,41.979302,-72.691713
Windsor,CT,6095,41.897317,-72.656699
Windsor Locks,CT,6096,41.937396,-72.649197
Winsted,CT,6098,41.921308,-73.069739
Hartford,CT,6103,41.767449,-72.678271
Hartford,CT,6105,41.775344,-72.705918
Hartford,CT,6106,41.763619,-72.691344
West Hartford,CT,6107,41.761359,-72.76079
East Hartford,CT,6108,41.794091,-72.618127
Wethersfield,CT,6109,41.702733,-72.699713
West Hartford,CT,6110,41.743209,-72.720625
Newington,CT,6111,41.705701,-72.706931
Hartford,CT,6112,41.791476,-72.697578
Hartford,CT,6114,41.733892,-72.680185
West Hartford,CT,6117,41.793517,-72.712915
East Hartford,CT,6118,41.735583,-72.590281
West Hartford,CT,6119,41.769121,-72.732156
Hartford,CT,6120,41.793586,-72.661442
Hartford,CT,6122,41.784533,-72.697143
Willimantic,CT,6226,41.719712,-72.220823
Andover,CT,6232,41.728967,-72.36624
Brooklyn,CT,6234,41.792633,-71.887169
Chaplin,CT,6235,41.78862,-72.14704
Columbia,CT,6237,41.705131,-72.301263
Coventry,CT,6238,41.781426,-72.31337
Danielson,CT,6239,41.818271,-71.894167
Dayville,CT,6241,41.849253,-71.883787
Eastford,CT,6242,41.902969,-72.081718
Hampton,CT,6247,41.771761,-72.087101
Hebron,CT,6248,41.676702,-72.409269
Lebanon,CT,6249,41.625356,-72.237453
Mansfield Center,CT,6250,41.746112,-72.259113
North Franklin,CT,6254,41.631307,-72.125451
North Grosvenor,CT,6255,41.976434,-71.898034
North Windham,CT,6256,41.744326,-72.171107
Pomfret Center,CT,6259,41.859546,-71.960533
Putnam,CT,6260,41.92487,-71.922543
Rogers,CT,6263,41.842556,-71.911121
Scotland,CT,6264,41.702819,-72.081451
Storrs,CT,6268,41.814219,-72.295973
Ashford,CT,6278,41.891509,-72.168928
West Willington,CT,6279,41.872761,-72.262866
Windham,CT,6280,41.701629,-72.161089
Woodstock,CT,6281,41.929817,-71.957575
New London,CT,6320,41.355837,-72.098392
Baltic,CT,6330,41.622527,-72.085695
Canterbury,CT,6331,41.698232,-71.976918
Central Village,CT,6332,41.731796,-71.904788
East Lyme,CT,6333,41.368778,-72.212815
Bozrah,CT,6334,41.563509,-72.153618
Gales Ferry,CT,6335,41.452495,-72.069795
Ledyard,CT,6339,41.427884,-71.975562
Groton,CT,6340,41.34212,-72.016658
Griswold,CT,6351,41.597585,-71.979968
Lisbon,CT,6351,41.604339,-72.01544
Jewett City,CT,6351,41.613833,-71.965557
Montville,CT,6353,41.44663,-72.13099
Moosup,CT,6354,41.716516,-71.88033
Mystic,CT,6355,41.347189,-71.998422
Groton,CT,6355,41.38212,-71.985483
Niantic,CT,6357,41.333543,-72.237826
North Stonington,CT,6359,41.438434,-71.88656
Pawcatuck,CT,6359,41.370216,-71.843127
Norwich,CT,6360,41.508393,-72.104173
Preston,CT,6365,41.489322,-71.98511
Oakdale,CT,6370,41.455024,-72.167789
Old Lyme,CT,6371,41.319002,-72.266393
Lyme,CT,6371,41.322717,-72.340445
Old Lyme,CT,6371,41.317672,-72.326192
Old Mystic,CT,6372,41.394817,-71.958381
Plainfield,CT,6374,41.733798,-71.906622
Quaker Hill,CT,6375,41.402149,-72.115739
Sterling,CT,6377,41.707643,-71.83852
Stonington,CT,6378,41.362049,-71.925008
Pawcatuck,CT,6379,41.367171,-71.86109
Taftville,CT,6380,41.569252,-72.054978
Uncasville,CT,6382,41.452758,-72.110354
Voluntown,CT,6384,41.574502,-71.866368
Waterford,CT,6385,41.341346,-72.132898
Ansonia,CT,6401,41.33504,-73.064377
Beacon Falls,CT,6403,41.447243,-73.060311
Branford,CT,6405,41.287711,-72.801293
Centerbrook,CT,6409,41.349995,-72.418923
Cheshire,CT,6410,41.521449,-72.901079
Chester,CT,6412,41.403111,-72.457751
Clinton,CT,6413,41.278352,-72.521194
Colchester,CT,6415,41.576634,-72.302119
Cromwell,CT,6416,41.615827,-72.66008
Deep River,CT,6417,41.386206,-72.434582
Derby,CT,6418,41.318283,-73.063589
Killingworth,CT,6419,41.37126,-72.565786
Salem,CT,6420,41.487545,-72.273702
Durham,CT,6422,41.477016,-72.670248
East Hampton,CT,6424,41.576822,-72.501531
Madison,CT,6433,41.295557,-72.57636
Guilford,CT,6437,41.337464,-72.71932
Haddam,CT,6438,41.488401,-72.521959
Higganum,CT,6441,41.444077,-72.554419
Madison,CT,6443,41.295009,-72.615936
Marlborough,CT,6447,41.627172,-72.459447
Meriden,CT,6450,41.52874,-72.83094
Meriden,CT,6451,41.530266,-72.822302
Middlefield,CT,6455,41.518298,-72.725264
Middletown,CT,6457,41.528578,-72.674731
Milford,CT,6460,41.249968,-73.046275
Monroe,CT,6468,41.345193,-73.234123
Moodus,CT,6469,41.501334,-72.438653
Newtown,CT,6470,41.399863,-73.271994
Newtown,CT,6471,41.411857,-73.300422
North Branford,CT,6471,41.32727,-72.811543
Northford,CT,6472,41.396427,-72.790717
North Haven,CT,6473,41.407801,-72.841272
Old Saybrook,CT,6475,41.286662,-72.411588
Orange,CT,6477,41.266086,-73.030548
Oxford,CT,6478,41.425444,-73.142503
Plantsville,CT,6479,41.578124,-72.89359
Portland,CT,6480,41.591366,-72.621837
Rockfall,CT,6481,41.532328,-72.701503
Sandy Hook,CT,6482,41.4099,-73.270963
Seymour,CT,6483,41.38739,-73.09068
Shelton,CT,6484,41.291392,-73.074028
Southbury,CT,6488,41.501817,-73.16097
Southington,CT,6489,41.596388,-72.878256
Wallingford,CT,6492,41.491003,-72.824376
Westbrook,CT,6498,41.286454,-72.44198
New Haven,CT,6510,41.310923,-72.920162
New Haven,CT,6511,41.311493,-72.937298
East Haven,CT,6512,41.254637,-72.866266
New Haven,CT,6512,41.269784,-72.897434
New Haven,CT,6513,41.305545,-72.91597
East Haven,CT,6513,41.328298,-72.832498
Hamden,CT,6514,41.342465,-72.94175
New Haven,CT,6515,41.337913,-72.959533
West Haven,CT,6516,41.242932,-72.98709
Hamden,CT,6517,41.371402,-72.909098
New Haven,CT,6517,41.346665,-72.923708
Hamden,CT,6518,41.43164,-72.926481
New Haven,CT,6519,41.288161,-72.933793
Bethany,CT,6524,41.424489,-73.000279
Woodbridge,CT,6525,41.357719,-73.008328
New Haven,CT,6530,41.317413,-72.939977
Bridgeport,CT,6604,41.190454,-73.200598
Bridgeport,CT,6605,41.173544,-73.206668
Bridgeport,CT,6606,41.205552,-73.213346
Bridgeport,CT,6607,41.179352,-73.16104
Bridgeport,CT,6608,41.184027,-73.182721
Bridgeport,CT,6609,41.202722,-73.208854
Bridgeport,CT,6610,41.199712,-73.163968
Trumbull,CT,6611,41.231912,-73.199836
Easton,CT,6612,41.245096,-73.270783
Stratford,CT,6614,41.225401,-73.139324
Stratford,CT,6615,41.193032,-73.145727
Waterbury,CT,6702,41.550134,-73.037664
Waterbury,CT,6704,41.600384,-73.028964
Waterbury,CT,6705,41.545746,-72.973117
Waterbury,CT,6706,41.524787,-73.029416
Waterbury,CT,6708,41.575752,-73.066083
Waterbury,CT,6710,41.563738,-73.043083
Prospect,CT,6712,41.497988,-72.975646
Wolcott,CT,6716,41.556451,-72.96828
Waterbury,CT,6720,41.5566,-73.0411
Bethlehem,CT,6751,41.639157,-73.199708
Bridgewater,CT,6752,41.531576,-73.364645
Warren,CT,6754,41.742494,-73.348111
Goshen,CT,6756,41.834714,-73.226802
Kent,CT,6757,41.72438,-73.48116
Litchfield,CT,6759,41.74598,-73.1947
Middlebury,CT,6762,41.504323,-73.154108
Morris,CT,6763,41.68305,-73.199852
Naugatuck,CT,6770,41.483149,-73.065408
New Milford,CT,6776,41.535246,-73.430015
Oakville,CT,6779,41.59908,-73.086481
Plymouth,CT,6782,41.67952,-73.053161
Roxbury,CT,6783,41.555135,-73.307666
Sherman,CT,6784,41.578208,-73.495931
Terryville,CT,6786,41.685416,-73.00735
Thomaston,CT,6787,41.656691,-73.091031
Torrington,CT,6790,41.81086,-73.11217
New Haven,CT,6790,41.30546,-72.93688
Harwinton,CT,6791,41.768173,-73.070418
Washington,CT,6793,41.604086,-73.303804
Washington Depot,CT,6794,41.638101,-73.31883
Watertown,CT,6795,41.600283,-73.131075
West Cornwall,CT,6796,41.876739,-73.341638
Woodbury,CT,6798,41.554773,-73.20395
Bethel,CT,6801,41.383013,-73.395034
Brookfield,CT,6804,41.480146,-73.390539
Cos Cob,CT,6807,41.039777,-73.598149
Danbury,CT,6810,41.413303,-73.454375
Danbury,CT,6811,41.41604,-73.471033
New Fairfield,CT,6812,41.462767,-73.493844
Darien,CT,6820,41.084651,-73.4903
Fairfield,CT,6824,41.182863,-73.302996
Fairfield,CT,6825,41.200987,-73.239771
Greenwich,CT,6830,41.048469,-73.605512
Greenwich,CT,6831,41.111898,-73.653432
New Canaan,CT,6840,41.147846,-73.479679
Norwalk,CT,6850,41.1164,-73.453971
Rowayton,CT,6850,41.06668,-73.438023
Norwalk,CT,6851,41.138875,-73.425738
Norwalk,CT,6853,41.071512,-73.444331
Norwalk,CT,6854,41.095574,-73.42
Norwalk,CT,6855,41.093766,-73.395412
Norwalk,CT,6856,41.096,-73.4243
Old Greenwich,CT,6870,41.029588,-73.567613
Redding,CT,6875,41.308977,-73.384685
Ridgefield,CT,6877,41.270418,-73.444716
Riverside,CT,6878,41.034196,-73.583465
Greenwich,CT,6878,41.051547,-73.576648
Westport,CT,6880,41.137306,-73.324814
Weston,CT,6883,41.203768,-73.379839
Fairfield,CT,6890,41.145017,-73.282111
Redding,CT,6896,41.30557,-73.402068
Wilton,CT,6897,41.204018,-73.432774
Stamford,CT,6901,41.051382,-73.54266
Stamford,CT,6902,41.05775,-73.547585
Stamford,CT,6903,41.138092,-73.557504
Stamford,CT,6905,41.104155,-73.533001
Stamford,CT,6906,41.078803,-73.524005
Stamford,CT,6907,41.052911,-73.521839
Westport,CT,6980,41.158405,-73.329414
Avenel,NJ,7001,40.586935,-74.270064
Bayonne,NJ,7002,40.666992,-74.123396
Bloomfield,NJ,7003,40.805445,-74.182208
Boonton,NJ,7005,40.902733,-74.404478
Boonton Township,NJ,7005,40.924249,-74.430666
West Caldwell,NJ,7006,40.841069,-74.295235
Caldwell,NJ,7006,40.842633,-74.28436
Fairfield,NJ,7006,40.8341,-74.3134
 Caldwell,NJ,7006,40.859285,-74.259379
North Caldwell,NJ,7006,40.86985,-74.2694
Caldwell,NJ,7006,40.832702,-74.267083
Carteret,NJ,7008,40.584759,-74.222428
Cedar Grove,NJ,7009,40.851457,-74.223802
Cliffside Park,NJ,7010,40.821342,-73.986539
Cliffside,NJ,7010,40.828789,-73.98378
Clifton,NJ,7011,40.880377,-74.151135
Garfield,NJ,7011,0,0
Clifton,NJ,7012,40.846143,-74.158862
Clifton,NJ,7013,40.897355,-74.172738
Clifton,NJ,7014,40.829085,-74.132314
Cranford,NJ,7016,40.664214,-74.290768
East Orange,NJ,7017,40.773293,-74.218191
East Orange,NJ,7018,40.753503,-74.218997
Edgewater,NJ,7020,40.82047,-73.979414
Essex Fells,NJ,7021,40.830168,-74.281584
Fairview,NJ,7022,40.81303,-73.996923
Fanwood,NJ,7023,40.63766,-74.392228
Ft Lee,NJ,7024,40.857952,-73.964698
Garfield,NJ,7026,40.874078,-74.098733
Garwood,NJ,7027,40.6545,-74.326988
Glen Ridge,NJ,7028,40.799291,-74.206546
 Newark,NJ,7029,40.750082,-74.158536
Harrison,NJ,7029,40.747657,-74.153587
Hoboken,NJ,7030,40.740376,-74.031599
Kearny,NJ,7032,40.761462,-74.146827
No Arlington,NJ,7032,40.789328,-74.132024
Kenilworth,NJ,7033,40.67947,-74.297423
Lake Hiawatha,NJ,7034,40.874929,-74.384998
Lincoln Park,NJ,7035,40.91082,-74.286857
Garfield,NJ,7036,40.876084,-74.109619
Linden,NJ,7036,40.634563,-74.265177
Winfield,NJ,7036,40.635189,-74.287258
Livingston,NJ,7039,40.784213,-74.320473
Livington,NJ,7039,40.778088,-74.333386
Maplewood,NJ,7040,40.735751,-74.266017
Millburn,NJ,7041,40.719492,-74.310161
Montclair,NJ,7042,40.811134,-74.216616
Upper Montclair,NJ,7042,40.85446,-74.201206
Verona,NJ,7044,40.841198,-74.24774
Montville,NJ,7045,40.893814,-74.360381
Montville Township,NJ,7045,40.892933,-74.347454
Mountain Lakes,NJ,7046,40.895239,-74.427317
 Bergen,NJ,7047,40.81026,-74.01458
North Bergen,NJ,7047,40.788026,-74.029055
Orange,NJ,7050,40.765592,-74.239403
West Orange,NJ,7052,40.792879,-74.27948
 Orange,NJ,7052,40.791085,-74.230616
West Orange,NJ,7052,40.792926,-74.286498
Parsippany,NJ,7054,40.869744,-74.391854
Passaic,NJ,7055,40.867489,-74.120761
Wallington,NJ,7057,40.854907,-74.10681
Pine Brook,NJ,7058,40.881711,-74.352127
Warren,NJ,7059,40.638666,-74.516744
Plainfield,NJ,7060,40.620505,-74.423168
 Plainfield,NJ,7060,40.622655,-74.439656
Plainfield,NJ,7060,40.610602,-74.413281
Warren,NJ,7060,40.637175,-74.485978
Plainfield,NJ,7060,40.611773,-74.428197
Plainfield,NJ,7062,40.627028,-74.413743
Plainfield,NJ,7063,40.603861,-74.429591
Port Reading,NJ,7064,40.571701,-74.241924
Rahway,NJ,7065,40.60064,-74.26836
Clark,NJ,7066,40.623729,-74.313827
Colonia,NJ,7067,40.592087,-74.319732
Roseland,NJ,7068,40.823075,-74.312239
Watchung,NJ,7069,40.65162,-74.42417
Rutherford,NJ,7070,40.828809,-74.107804
Lyndhurst,NJ,7071,40.80382,-74.121539
Carlstadt,NJ,7072,40.844676,-74.094594
 Rutherford,NJ,7073,40.832221,-74.093243
East Rutherford,NJ,7073,40.846739,-74.113576
Moonachie,NJ,7074,40.844713,-74.048284
Wood Ridge,NJ,7075,40.847986,-74.080359
Scotch Plains,NJ,7076,40.620072,-74.370389
Sewaren,NJ,7077,40.559001,-74.25971
Short Hills,NJ,7078,40.750734,-74.313372
 Orange,NJ,7079,40.747754,-74.272296
South Orange,NJ,7079,40.745203,-74.252911
South Plainfield,NJ,7080,40.571247,-74.416836
Springfield,NJ,7081,40.706289,-74.314415
Kearny,NJ,7082,40.727698,-74.10648
Towaco,NJ,7082,40.916281,-74.341121
Union,NJ,7083,40.70845,-74.283977
Weehawken,NJ,7086,40.771308,-74.021601
Union City,NJ,7087,40.765694,-74.038099
Weehawken Township,NJ,7087,40.7704,-74.0304
Westfield,NJ,7090,40.680908,-74.329809
Summit,NJ,7091,40.714146,-74.378177
Mountainside,NJ,7092,40.672096,-74.369348
Guttenberg,NJ,7093,40.793749,-74.008309
West New York,NJ,7093,40.782549,-74.015911
Secaucus,NJ,7094,40.801432,-74.046969
Woodbridge,NJ,7095,40.541785,-74.277592
Newark,NJ,7102,40.73427,-74.176091
Newark,NJ,7103,40.735825,-74.199127
Newark,NJ,7104,40.767376,-74.169224
Newark,NJ,7105,40.724101,-74.158848
Newark,NJ,7106,40.743904,-74.224991
Newark,NJ,7107,40.761575,-74.183891
Newark,NJ,7108,40.718183,-74.191709
Belleville,NJ,7109,40.803326,-74.162008
Nutley,NJ,7110,40.816992,-74.159723
Irvington,NJ,7111,40.739112,-74.214196
Newark,NJ,7112,40.711168,-74.202782
Newark,NJ,7114,40.724611,-74.180067
Newark,NJ,7120,40.738073,-74.173856
Elizabeth,NJ,7201,40.666829,-74.214213
Elizabeth,NJ,7202,40.653149,-74.22583
Roselle,NJ,7203,40.637251,-74.264339
Roselle Park,NJ,7204,40.666033,-74.272634
Hillside,NJ,7205,40.69135,-74.235876
Elizabeth,NJ,7206,40.65951,-74.197388
Elizabeth,NJ,7207,40.662103,-74.21647
Elizabeth,NJ,7208,40.67848,-74.217043
Jersey City,NJ,7302,40.747937,-74.045087
Jersey City,NJ,7304,40.71609,-74.07407
Jersey City,NJ,7305,40.696418,-74.09105
Jersey City,NJ,7306,40.735927,-74.071222
Howell Township,NJ,7306,40.7307,-74.0654
Jersey City,NJ,7307,40.748232,-74.056298
Jersey City,NJ,7310,40.733107,-74.04315
Allendale,NJ,7401,41.029916,-74.136358
Bloomingdale,NJ,7403,41.016443,-74.320247
Butler,NJ,7405,40.998134,-74.339976
Kinnelon,NJ,7405,40.996228,-74.376065
Elmwood Park,NJ,7407,40.909887,-74.129292
Fair Lawn,NJ,7410,40.934475,-74.104454
Franklin,NJ,7416,41.117446,-74.582841
Franklin Lakes,NJ,7417,41.020781,-74.203811
Hamburg,NJ,7419,41.153192,-74.573463
Haskell,NJ,7420,41.014511,-74.298403
Ho Ho Kus,NJ,7423,41.000044,-74.103247
Little Falls,NJ,7424,40.88462,-74.247766
West Paterson,NJ,7424,40.892829,-74.208838
Mahwah,NJ,7430,41.086373,-74.162913
Midland Park,NJ,7432,41.000329,-74.136516
Oakland,NJ,7436,41.018449,-74.244694
Oak Ridge,NJ,7438,41.019216,-74.550163
Hewitt,NJ,7438,41.184474,-74.386166
Ogdensburg,NJ,7439,41.080008,-74.593653
Pequannock,NJ,7440,40.946214,-74.298577
Pompton Lakes,NJ,7442,41.004545,-74.288978
Pompton Plains,NJ,7444,40.960728,-74.306201
Ramsey,NJ,7446,41.056811,-74.134553
Ridgewood,NJ,7450,40.959158,-74.104651
Ridgewood,NJ,7451,40.98463,-74.084086
Glen Rock,NJ,7452,40.95517,-74.12244
Ringwood,NJ,7456,41.12862,-74.260097
Riverdale,NJ,7457,40.993049,-74.303683
Saddle River,NJ,7458,41.031822,-74.096477
Upper Saddle River,NJ,7458,41.062701,-74.096791
Sussex,NJ,7461,41.199982,-74.644103
Wantage,NJ,7461,41.230913,-74.616499
Vernon,NJ,7462,41.247181,-74.489324
Waldwick,NJ,7463,41.011653,-74.132634
Wanaque,NJ,7465,41.059787,-74.282342
Wayne,NJ,7470,40.929843,-74.203599
West Milford,NJ,7480,41.079152,-74.381371
Wyckoff,NJ,7481,41.015195,-74.161077
Paterson,NJ,7501,40.919193,-74.173447
Paterson,NJ,7502,40.916197,-74.192131
Paterson,NJ,7503,40.894357,-74.149856
Paterson,NJ,7504,40.916573,-74.15223
Paterson,NJ,7505,40.917339,-74.167831
Hawthorne,NJ,7506,40.953554,-74.159597
Hawthorne,NJ,7507,40.970404,-74.160864
Haledon,NJ,7508,40.93219,-74.188747
North Haledon,NJ,7508,40.955177,-74.182349
Prospect Park,NJ,7508,40.934805,-74.172747
Paterson,NJ,7509,40.915532,-74.165142
Totowa,NJ,7511,40.900996,-74.230774
Totowa,NJ,7512,40.900988,-74.230764
Paterson,NJ,7513,40.912081,-74.15763
Paterson,NJ,7514,40.924064,-74.15154
Paterson,NJ,7522,40.914759,-74.187447
Paterson,NJ,7524,40.92737,-74.16058
Wayne,NJ,7570,40.941458,-74.210492
Hackensack,NJ,7601,40.90221,-74.034264
Bogota,NJ,7603,40.877697,-74.023041
Hasbrouck Heights,NJ,7604,40.866855,-74.07409
Leonia,NJ,7605,40.871092,-73.98823
South Hackensack,NJ,7606,40.865668,-74.046212
Maywood,NJ,7607,40.89905,-74.062946
Teterboro,NJ,7608,40.860166,-74.054585
Alpine,NJ,7620,40.940649,-73.927265
Bergenfield,NJ,7621,40.925075,-74.007391
Closter,NJ,7624,40.966522,-73.949691
Cresskill,NJ,7626,40.947504,-73.963736
Demarest,NJ,7627,40.952053,-73.956061
Dumont,NJ,7628,40.943762,-73.998071
Emerson,NJ,7630,40.972924,-74.017656
Englewood,NJ,7631,40.899832,-73.975844
Englewood Cliffs,NJ,7632,40.893865,-73.947374
Harrington Park,NJ,7640,40.98675,-73.983465
Haworth,NJ,7641,40.961537,-73.985577
Hillsdale,NJ,7642,41.007155,-74.066807
Little Ferry,NJ,7643,40.847692,-74.042264
Lodi,NJ,7644,40.875744,-74.080489
Montvale,NJ,7645,41.05861,-74.0547
New Milford,NJ,7646,40.942068,-74.021515
Northvale,NJ,7647,41.006993,-73.952046
Norwood,NJ,7648,40.995701,-73.962456
Oradell,NJ,7649,40.953348,-74.03502
Palisades Park,NJ,7650,40.838356,-73.993506
Paramus,NJ,7652,40.955123,-74.054016
Park Ridge,NJ,7656,41.034133,-74.042463
Ridgefield,NJ,7657,40.83002,-74.005189
Ridgefield Park,NJ,7660,40.861978,-74.025962
River Edge,NJ,7661,40.92082,-74.035817
Rochelle Park,NJ,7662,40.904649,-74.07724
Saddle Brook,NJ,7662,40.896653,-74.088493
Teaneck,NJ,7666,40.907135,-74.001226
Tenafly,NJ,7670,40.932991,-73.966218
Old Tappan,NJ,7675,41.010062,-73.979453
River Vale,NJ,7675,41.003716,-74.008548
Westwood,NJ,7675,40.992104,-74.024327
Woodcliff Lake,NJ,7675,41.024505,-74.059321
Rivervale,NJ,7675,40.990315,-73.999535
Washington Twp,NJ,7676,40.980052,-74.061421
Red Bank,NJ,7701,40.348364,-74.071817
Avenel,NJ,7701,40.588205,-74.267237
Shrewsbury,NJ,7702,40.328452,-74.063001
Fair Haven,NJ,7704,40.35619,-74.04168
Tinton Falls,NJ,7712,40.270284,-74.081746
Asbury Park,NJ,7712,40.218837,-74.007098
Ocean,NJ,7712,40.26427,-74.07694
Wanamassa,NJ,7712,40.238266,-74.026319
Asbury Park,NJ,7712,40.228206,-74.011473
Atlantic Highlands,NJ,7716,40.411523,-74.039285
Avon,NJ,7717,40.190296,-74.021042
Belford,NJ,7718,40.413268,-74.084705
Lake Como,NJ,7719,40.172716,-74.027766
Belmar,NJ,7719,40.178136,-74.026908
Wall,NJ,7719,40.175672,-74.063155
Sea Girt,NJ,7719,40.142116,-74.054963
West Belmar,NJ,7719,40.17223,-74.034448
Belmar,NJ,7719,40.181908,-74.026342
Wall Township,NJ,7719,40.150714,-74.057066
Bradley Beach,NJ,7720,40.20214,-74.015635
Cliffwood,NJ,7721,40.433416,-74.230541
Colts Neck,NJ,7722,40.318596,-74.190664
Deal,NJ,7723,40.246907,-74.005824
Eatontown,NJ,7724,40.318609,-74.111916
Tinton Falls,NJ,7724,40.305102,-74.090501
Manalapan,NJ,7726,40.25432,-74.338608
Englishtown,NJ,7726,40.28896,-74.335698
Farmingdale,NJ,7727,40.16508,-74.124546
Freehold,NJ,7728,40.271602,-74.258947
Hazlet,NJ,7730,40.42746,-74.150836
Howell,NJ,7731,40.114922,-74.158365
Highlands,NJ,7732,40.393721,-73.985774
Sandy Hook,NJ,7732,40.459398,-74.001791
Holmdel,NJ,7733,40.383003,-74.17911
Keansburg,NJ,7734,40.437026,-74.128294
Keyport,NJ,7735,40.428521,-74.196844
Cliffwood Beach,NJ,7735,40.446202,-74.239975
Union Beach,NJ,7735,40.441043,-74.173808
Keyport,NJ,7735,40.426591,-74.196259
Leonardo,NJ,7737,40.412455,-74.058668
Lincroft,NJ,7738,40.329955,-74.125309
Little Silver,NJ,7739,40.337584,-74.044268
Long Branch,NJ,7740,40.317133,-73.981653
Marlboro,NJ,7746,40.328846,-74.24732
Aberdeen,NJ,7747,40.402341,-74.225021
Matawan,NJ,7747,40.403838,-74.27044
Middletown,NJ,7748,40.402098,-74.099494
North Middletown,NJ,7748,40.435965,-74.117519
New Monmouth,NJ,7748,40.41664,-74.12125
Monmouth Beach,NJ,7750,40.330013,-73.984033
Morganville,NJ,7751,40.368757,-74.262297
Navesink,NJ,7752,40.400167,-74.031543
Neptune City,NJ,7753,40.204427,-74.039684
Neptune,NJ,7753,40.211707,-74.017881
Oakhurst,NJ,7755,40.266116,-74.030934
Oceanport,NJ,7757,40.317965,-74.007968
Port Monmouth,NJ,7758,40.420815,-74.119302
Rumson,NJ,7760,40.371011,-74.00473
Spring Lake,NJ,7762,40.157471,-74.029989
Spring Lake Heights,NJ,7762,40.154274,-74.036707
West Long Branch,NJ,7764,40.295068,-74.023224
Dover,NJ,7801,40.890114,-74.547412
Mine Hill,NJ,7803,40.876776,-74.60154
Allamuchy,NJ,7820,40.924688,-74.811817
Belvidere,NJ,7823,40.82459,-75.065886
Blairstown,NJ,7825,40.975985,-74.93625
Branchville,NJ,7826,41.137876,-74.737744
Montague,NJ,7827,41.287701,-74.791437
Budd Lake,NJ,7828,40.847377,-74.748546
Califon,NJ,7830,40.724784,-74.839364
Delaware,NJ,7833,40.8916,-75.06514
Denville,NJ,7834,40.870415,-74.503731
Flanders,NJ,7836,40.859447,-74.71307
Great Meadows,NJ,7838,40.874465,-74.902833
Greendell,NJ,7839,40.983039,-74.794271
Hackettstown,NJ,7840,40.914886,-74.816112
Hopatcong,NJ,7843,40.925818,-74.671121
Hope,NJ,7844,40.911033,-74.964902
Johnsonburg,NJ,7846,40.988176,-74.869295
Lafayette,NJ,7848,41.131716,-74.654382
Lake Hopatcong,NJ,7849,40.952932,-74.613613
Landing,NJ,7850,40.916598,-74.653255
Layton,NJ,7851,41.215236,-74.819842
Long Valley,NJ,7853,40.837974,-74.778381
Mt Arlington,NJ,7856,40.934032,-74.628597
Netcong,NJ,7857,40.899176,-74.699204
Newton,NJ,7860,41.123352,-74.757894
Oxford,NJ,7863,40.78341,-75.022926
Port Murray,NJ,7865,40.766251,-74.935397
Rockaway,NJ,7866,40.90286,-74.528435
Randolph,NJ,7869,40.846452,-74.566484
Sparta,NJ,7871,41.096355,-74.652871
Stanhope,NJ,7874,40.934417,-74.703353
Stillwater,NJ,7875,41.037691,-74.876465
Succasunna,NJ,7876,40.861667,-74.640957
Mt Tabor,NJ,7878,40.867916,-74.473167
Washington,NJ,7882,40.727534,-75.048764
Lake Shawnee Wharton,NJ,7885,40.971819,-74.589735
Wharton,NJ,7885,40.922459,-74.543337
Summit,NJ,7901,40.720464,-74.370912
Mountainside,NJ,7902,40.66986,-74.35418
Basking Ridge,NJ,7920,40.65636,-74.62198
Bedminster,NJ,7921,40.678132,-74.643507
Berkeley Heights,NJ,7922,40.687173,-74.386624
Berkeley Hts,NJ,7922,40.676614,-74.429344
Bernardsville,NJ,7924,40.72151,-74.56735
Brookside,NJ,7926,40.792299,-74.571577
Chatham,NJ,7928,40.731393,-74.401153
Chester,NJ,7930,40.796517,-74.672149
Florham Park,NJ,7932,40.778885,-74.384598
Gillette,NJ,7933,40.672255,-74.470474
East Hanover,NJ,7936,40.825803,-74.363092
Liberty Corner,NJ,7938,40.66557,-74.58113
Madison,NJ,7940,40.770094,-74.408439
Mendham,NJ,7945,40.774654,-74.599168
Millington,NJ,7946,40.673125,-74.516435
Greystone Park,NJ,7950,40.838635,-74.510612
Morris Plains,NJ,7950,40.829636,-74.457729
Morristown,NJ,7960,40.81417,-74.481834
Convent Station,NJ,7961,40.784203,-74.46342
Morristown,NJ,7963,40.832977,-74.513322
New Providence,NJ,7974,40.698719,-74.392842
New Vernon,NJ,7976,40.741958,-74.502065
Stirling,NJ,7980,40.676873,-74.498642
Whippany,NJ,7981,40.81463,-74.424704
Alloway,NJ,8001,39.558413,-75.36434
Cherry Hill,NJ,8002,39.92735,-75.005481
Cherry Hill,NJ,8003,39.860639,-75.013544
Atco,NJ,8004,39.772413,-74.894039
Barnegat,NJ,8005,39.757112,-74.233049
Barrington,NJ,8007,39.868874,-75.049429
Beach Haven,NJ,8008,39.56726,-74.23541
Surf City,NJ,8008,39.65542,-74.1766
Ship Bottom,NJ,8008,39.643778,-74.1832
Berlin,NJ,8009,39.796675,-74.949136
Beverly,NJ,8010,40.060651,-74.922862
Edgewater Park,NJ,8010,40.058087,-74.908701
Blackwood,NJ,8012,39.788611,-75.058568
Blackwoodlex,NJ,8012,39.783964,-75.067205
Turnersville,NJ,8012,39.755706,-75.064699
Browns Mills,NJ,8015,39.976212,-74.588471
Burlington,NJ,8016,40.070773,-74.853018
Cedar Brook,NJ,8018,39.712958,-74.896763
Chatsworth,NJ,8019,39.67051,-74.545483
Clementon,NJ,8021,39.801736,-74.991749
Laurel Springs,NJ,8021,39.822948,-75.003895
Lindenwold,NJ,8021,39.82061,-74.975472
Pine Hill,NJ,8021,39.77786,-74.965933
Clementon,NJ,8021,39.806026,-74.989852
Lindenwold,NJ,8021,39.8188,-74.9862
Columbus,NJ,8022,40.088342,-74.689146
Gibbsboro,NJ,8026,39.83716,-74.96804
Gibbstown,NJ,8027,39.825833,-75.285117
Glassboro,NJ,8028,39.673566,-75.142366
Glendora,NJ,8029,39.838396,-75.072101
Brooklawn,NJ,8030,39.878166,-75.118508
Gloucester City,NJ,8030,39.88717,-75.113904
Gloucester,NJ,8030,39.897399,-75.127735
Bellmawr,NJ,8031,39.870395,-75.090785
Haddonfield,NJ,8033,39.880605,-75.044559
Cherry Hill,NJ,8034,39.914305,-74.991136
Haddon Heights,NJ,8035,39.8842,-75.050198
Hainesport,NJ,8036,39.98722,-74.825911
Ancora,NJ,8037,39.669064,-74.862582
Folsom,NJ,8037,39.603499,-74.846885
Hammonton,NJ,8037,39.656599,-74.807258
Blue Anchor,NJ,8037,39.675496,-74.891705
Harrisonville,NJ,8039,39.689169,-75.266576
Jobstown,NJ,8041,40.03599,-74.702063
Voorhees,NJ,8043,39.849918,-74.967473
Lawnside,NJ,8045,39.864186,-75.021035
Willingboro,NJ,8046,40.04598,-74.897988
Lumberton,NJ,8048,39.932595,-74.85218
Magnolia,NJ,8049,39.858359,-75.034282
Manahawkin,NJ,8050,39.716912,-74.254168
Mantua,NJ,8051,39.772507,-75.181085
Maple Shade,NJ,8052,39.946861,-75.006522
Marlton,NJ,8053,39.905965,-74.907371
Evesham,NJ,8053,39.902982,-74.882297
Mt Laurel,NJ,8054,39.950903,-74.874643
Medford,NJ,8055,39.894679,-74.803271
Medford Lakes,NJ,8055,39.867018,-74.806024
Mickleton,NJ,8056,39.787525,-75.246185
Moorestown,NJ,8057,39.984046,-74.914009
Manahawkin,NJ,8057,39.702742,-74.283407
Moorestown,NJ,8057,39.967552,-74.948438
Mt Ephraim,NJ,8059,39.878535,-75.085221
Mt Holly,NJ,8060,40.01402,-74.821963
Westampton,NJ,8060,40.011874,-74.805263
Westampton Twp,NJ,8060,40.019053,-74.822856
Eastampton,NJ,8060,39.999096,-74.754908
Westampton,NJ,8060,40.001477,-74.808193
Willingboro,NJ,8060,40.02842,-74.895089
Mullica Hill,NJ,8062,39.750367,-75.20739
National Park,NJ,8063,39.865213,-75.181465
New Lisbon,NJ,8064,39.96455,-74.63199
New Lisbonrd,NJ,8064,39.967132,-74.63897
Palmyra,NJ,8065,40.002572,-75.027999
Paulsboro,NJ,8066,39.836801,-75.24495
West Deptford,NJ,8066,39.828605,-75.191847
Pedricktown,NJ,8067,39.754672,-75.404011
Pemberton,NJ,8068,39.982665,-74.678102
Carneys Point,NJ,8069,39.716502,-75.457659
Penns Grove,NJ,8069,39.720233,-75.472255
Pennsville,NJ,8070,39.650437,-75.518617
Pitman,NJ,8071,39.735133,-75.127349
Quinton,NJ,8072,39.543046,-75.411184
Delanco,NJ,8075,40.052613,-74.947194
Delran,NJ,8075,40.022761,-74.935556
Riverside,NJ,8075,40.034192,-74.955223
Cinnaminson,NJ,8077,40.006832,-74.996218
Riverton,NJ,8077,40.011588,-75.013059
Runnemede,NJ,8078,39.85008,-75.063352
Salem,NJ,8079,39.551165,-75.518622
Sewell,NJ,8080,39.791991,-75.123681
Erial,NJ,8081,39.761839,-75.017743
Sicklerville,NJ,8081,39.763903,-74.975976
Somerdale,NJ,8083,39.836617,-75.025952
Stratford,NJ,8084,39.829966,-75.031661
Woolwich Twp,NJ,8085,39.762632,-75.285512
Logan Twp,NJ,8085,39.755703,-75.355966
Swedesboro,NJ,8085,39.746384,-75.313467
Woolwich Township,NJ,8085,39.719405,-75.341905
Thorofare,NJ,8086,39.867699,-75.165865
Little Egg Harbor,NJ,8087,39.619997,-74.343238
Tuckerton,NJ,8087,39.610409,-74.359581
Little Egg Harbor Twp,NJ,8087,39.57805,-74.366074
Tabernacle,NJ,8088,39.78604,-74.664475
Vincentown,NJ,8088,39.934947,-74.74612
Tabernacle,NJ,8088,39.857411,-74.71763
Shamong,NJ,8088,39.797538,-74.744488
Southampton,NJ,8088,39.93315,-74.74684
Tabernacle,NJ,8088,39.805589,-74.728436
Waterford,NJ,8089,39.727533,-74.851041
Wenonah,NJ,8090,39.806883,-75.159776
West Berlin,NJ,8091,39.815196,-74.932848
West Creek,NJ,8092,39.657123,-74.290927
Westville,NJ,8093,39.850263,-75.132423
Williamstown,NJ,8094,39.58769,-74.880664
Deptford,NJ,8096,39.82675,-75.124481
Woodbury Hts,NJ,8096,39.817362,-75.140317
Woodbury,NJ,8096,39.815865,-75.170393
Deptford,NJ,8096,39.830385,-75.127617
Woodbury Hts,NJ,8097,39.816611,-75.15041
Woodstown,NJ,8098,39.628504,-75.366463
Camden,NJ,8102,39.946997,-75.119334
Camden,NJ,8103,39.929302,-75.118187
Camden,NJ,8104,39.90493,-75.101034
Camden,NJ,8105,39.957607,-75.085747
Pennsauken,NJ,8105,39.937169,-75.08158
Audubon,NJ,8106,39.88498,-75.076366
West Collingswood,NJ,8107,39.9117,-75.08946
Oaklyn,NJ,8107,39.897834,-75.075769
Woodlynne,NJ,8107,39.919055,-75.094118
Collingswood,NJ,8108,39.912713,-75.077513
Westmont,NJ,8108,39.90154,-75.053019
Pennsauken,NJ,8109,39.939227,-75.065633
Merchantville,NJ,8109,39.949294,-75.04887
Pennsauken,NJ,8110,39.986797,-75.027332
Delair,NJ,8110,39.975333,-75.05428
Absecon,NJ,8201,39.437007,-74.495303
Avalon,NJ,8202,39.095695,-74.725035
Brigantine,NJ,8203,39.411908,-74.364569
Cape May,NJ,8204,38.939167,-74.918916
West Cape May,NJ,8204,38.940719,-74.934968
Cape May,NJ,8204,38.9785,-74.8849
Galloway,NJ,8205,39.5037,-74.4562
Cape May Court House,NJ,8210,39.098643,-74.802701
Dennisville,NJ,8214,39.198707,-74.817745
Egg Harbor City,NJ,8215,39.536596,-74.63376
Egg Harbor,NJ,8215,39.48165,-74.57709
Egg Harbor City,NJ,8216,0,0
Elwood,NJ,8217,39.580085,-74.712471
Linwood,NJ,8221,39.341568,-74.576381
Marmora,NJ,8223,39.269657,-74.647588
New Gretna,NJ,8224,39.593766,-74.452196
Northfield,NJ,8225,39.367034,-74.561008
Ocean City,NJ,8226,39.279766,-74.567707
Pleasantville,NJ,8232,39.396003,-74.529869
Egg Harbor Township,NJ,8234,39.420087,-74.571634
Pleasantville,NJ,8234,39.391451,-74.558398
Galloway,NJ,8240,39.5247,-74.5719
Port Republic,NJ,8241,39.520697,-74.494756
Sea Isle City,NJ,8243,39.154049,-74.69681
Somers Point,NJ,8244,39.32749,-74.59991
Stone Harbor,NJ,8247,39.056006,-74.758604
Villas,NJ,8251,39.008638,-74.93719
 Wildwood,NJ,8260,38.999159,-74.79802
Wildwood,NJ,8260,38.985765,-74.819817
North Wildwood,NJ,8260,38.993851,-74.808121
Wildwood Crest,NJ,8260,38.963822,-74.85047
Wildwood,NJ,8260,38.99191,-74.819083
Woodbine,NJ,8270,39.235763,-74.805847
Petersburg,NJ,8270,39.262543,-74.731752
Bridgeton,NJ,8302,39.413096,-75.209567
Newark,NJ,8302,40.747708,-74.185314
Seabrook,NJ,8302,39.476773,-75.219722
Buena,NJ,8310,39.536876,-74.919086
Cedarville,NJ,8311,39.33966,-75.20103
Clayton,NJ,8312,39.663483,-75.084731
Delmont,NJ,8314,39.242955,-74.952027
Dorothy,NJ,8317,39.40543,-74.816941
Elmer,NJ,8318,39.592514,-75.175741
Pittsgrove,NJ,8318,39.528922,-75.163009
Elmer,NJ,8318,39.607104,-75.253289
Estell Manor,NJ,8319,39.379001,-74.826015
Franklinville,NJ,8322,39.610436,-75.070777
Greenwich,NJ,8323,39.400197,-75.344976
Landisville,NJ,8326,39.527057,-74.943551
Leesburg,NJ,8327,39.234299,-74.95603
Mays Landing,NJ,8330,39.438326,-74.694234
Millville,NJ,8332,39.386749,-75.044744
Millville,NJ,8333,0,0
Minotola,NJ,8341,39.513345,-74.947901
Monroeville,NJ,8343,39.628753,-75.202067
Newfield,NJ,8344,39.547844,-75.018013
Newport,NJ,8345,39.297068,-75.165318
Norma,NJ,8347,39.500552,-75.087683
Port Elizabeth,NJ,8348,39.308717,-74.980248
Port Norris,NJ,8349,39.283002,-75.024396
Vineland,NJ,8350,39.485,-75.0017
Rosenhayn,NJ,8352,39.462011,-75.125937
Vineland,NJ,8360,39.447386,-75.046236
Vineland,NJ,8361,39.483155,-74.996655
Egg Harbor,NJ,8401,39.420436,-74.570894
Atlantic City,NJ,8401,39.368093,-74.427277
Margate,NJ,8402,39.33404,-74.501782
Atlantic City,NJ,8404,39.363541,-74.434983
Ventnor,NJ,8406,39.339488,-74.495552
Allentown,NJ,8501,40.174382,-74.608791
Bordentown,NJ,8505,40.140211,-74.721426
Clarksburg,NJ,8510,40.202819,-74.4246
Millstone Township,NJ,8510,40.20281,-74.42457
Cranbury,NJ,8512,40.313032,-74.519365
Chesterfield,NJ,8515,40.118739,-74.642715
Florence,NJ,8518,40.093061,-74.792422
Florence Township,NJ,8518,40.1191,-74.8096
Hightstown,NJ,8520,40.260377,-74.531957
East Windsor,NJ,8520,40.260168,-74.494328
Hightstown,NJ,8520,40.271782,-74.53265
Hopewell,NJ,8525,40.425014,-74.757776
Jackson,NJ,8527,40.079578,-74.264233
Lambertville,NJ,8530,40.372559,-74.944312
New Egypt,NJ,8533,40.07978,-74.528973
Pennington,NJ,8534,40.305475,-74.758647
Plainsboro,NJ,8536,40.322729,-74.60023
Princeton,NJ,8540,40.369407,-74.656897
Princeton Junction,NJ,8550,40.271971,-74.599811
Princeton Jct,NJ,8550,40.306104,-74.619717
West Windsor Township,NJ,8550,40.3015,-74.6234
Ringoes,NJ,8551,40.429748,-74.859245
Roebling,NJ,8554,40.116039,-74.783164
Roosevelt,NJ,8555,40.218616,-74.475199
Sergeantsville,NJ,8557,40.446194,-74.936047
Delaware Township,NJ,8557,40.4437,-74.9545
Skillman,NJ,8558,40.416551,-74.687125
Titusville,NJ,8560,40.304295,-74.846787
Wrightstown,NJ,8562,39.997299,-74.595973
Trenton,NJ,8608,40.214683,-74.761394
Trenton,NJ,8609,40.229893,-74.723593
Hamilton,NJ,8610,40.198486,-74.722238
Trenton,NJ,8610,40.202138,-74.691512
Hamilton Township,NJ,8610,40.212403,-74.72449
Trenton,NJ,8611,40.204928,-74.750294
Trenton,NJ,8618,40.220817,-74.7664
West Trenton,NJ,8618,40.246944,-74.801094
Ewing,NJ,8618,40.254961,-74.78967
Trenton,NJ,8618,40.232,-74.78116
Hamilton Twp,NJ,8619,40.226154,-74.713112
Trenton,NJ,8619,40.217293,-74.66449
Yardville,NJ,8620,40.159657,-74.676982
Trenton,NJ,8620,40.189083,-74.671466
Hamilton Township,NJ,8620,40.180187,-74.66746
West Trenton,NJ,8625,40.246834,-74.801054
Trenton,NJ,8625,40.254488,-74.682072
Trenton,NJ,8628,40.24713,-74.80061
Ewing,NJ,8628,40.277714,-74.836703
Trenton,NJ,8629,40.220456,-74.725275
Vineland,NJ,8631,39.467191,-74.97357
Trenton,NJ,8638,40.240811,-74.805869
Ewing,NJ,8638,40.250254,-74.768976
Ft Dix,NJ,8640,39.993415,-74.627342
McGuire Afb,NJ,8641,40.04933,-74.577723
Lawrenceville,NJ,8648,40.277978,-74.716134
Trenton,NJ,8648,40.29552,-74.732927
Wrightstown,NJ,8652,40.072431,-74.586159
Trenton,NJ,8690,40.220135,-74.664091
Hamilton Square,NJ,8690,40.21759,-74.65446
Trenton,NJ,8690,40.224569,-74.678378
Robbinsville,NJ,8690,40.238274,-74.619363
Hamilton,NJ,8690,40.249689,-74.657154
Trenton,NJ,8691,40.205698,-74.647242
Robbinsville,NJ,8691,40.236688,-74.625134
Lakewood,NJ,8701,40.100489,-74.193569
Bayville,NJ,8721,39.91788,-74.158614
Beachwood,NJ,8722,39.915223,-74.206089
Brick,NJ,8723,40.068495,-74.14883
Brick Town,NJ,8723,40.073233,-74.153154
Bricktown,NJ,8723,40.050085,-74.115063
Brick,NJ,8724,40.111871,-74.112202
Brick Town,NJ,8724,40.068108,-74.100081
Brielle,NJ,8730,40.111689,-74.060654
Forked River,NJ,8731,39.840671,-74.184589
Island Heights,NJ,8732,39.946079,-74.152287
Lakehurst,NJ,8733,40.01201,-74.31655
Manchester,NJ,8733,40.01545,-74.302337
Lanoka Harbor,NJ,8734,39.867298,-74.184835
Lavallette,NJ,8735,39.968733,-74.070443
Manasquan,NJ,8736,40.128221,-74.049105
Ocean Gate,NJ,8740,39.92393,-74.1435
Pine Beach,NJ,8741,39.935492,-74.180011
Bay Head,NJ,8742,40.06996,-74.05023
Point Pleasant,NJ,8742,40.078184,-74.072767
Point Pleasant Beach,NJ,8742,40.089132,-74.052697
Sea Girt,NJ,8750,40.132903,-74.042499
Seaside Hts,NJ,8751,39.94583,-74.07856
Toms River,NJ,8753,39.97609,-74.19835
Toms River,NJ,8754,40.005886,-74.2262
Toms River,NJ,8755,40.027549,-74.225316
South Toms River,NJ,8757,39.940615,-74.211748
Waretown,NJ,8758,39.79572,-74.246615
Manchester,NJ,8759,40.0171,-74.2976
Whiting,NJ,8759,39.959426,-74.378087
Annandale,NJ,8801,40.649692,-74.862876
Asbury,NJ,8802,40.664717,-75.033808
Bloomsbury,NJ,8804,40.654471,-75.086566
Bound Brook,NJ,8805,40.567618,-74.536458
Bridgewater,NJ,8807,40.592828,-74.633368
Clinton,NJ,8809,40.628261,-74.92849
Dayton,NJ,8810,40.373905,-74.515486
Dunellen,NJ,8812,40.592296,-74.468004
Green Brook,NJ,8812,40.60283,-74.46641
East Brunswick,NJ,8816,40.436744,-74.395927
 Brunswick,NJ,8816,40.433475,-74.397655
Edison,NJ,8817,0,0
Edison,NJ,8820,40.579083,-74.369807
Flemington,NJ,8822,40.516373,-74.852194
Franklin Park,NJ,8823,40.44356,-74.54083
Kendall Park,NJ,8824,40.434626,-74.528495
Frenchtown,NJ,8825,40.562897,-75.004874
Glen Gardner,NJ,8826,40.692593,-74.918274
Hampton,NJ,8827,40.705746,-74.954909
High Bridge,NJ,8829,40.667514,-74.890515
Iselin,NJ,8830,40.572304,-74.303822
Jamesburg,NJ,8831,40.343091,-74.398301
Monroe Township,NJ,8831,40.296136,-74.473257
Monroe Twp,NJ,8831,40.338377,-74.416273
Lebanon,NJ,8833,40.653461,-74.828035
Manville,NJ,8835,40.54487,-74.59154
Edison,NJ,8837,40.532465,-74.339387
Metuchen,NJ,8840,40.553423,-74.354146
Somerville,NJ,8844,40.520285,-74.661458
Hillsborough,NJ,8844,40.49692,-74.6548
Belle Mead,NJ,8844,40.480868,-74.594316
Middlesex,NJ,8846,40.582974,-74.494747
Milford,NJ,8848,40.599878,-75.115946
Milltown,NJ,8850,40.452033,-74.44059
Monmouth Junction,NJ,8852,40.390365,-74.523938
Neshanic Station,NJ,8853,40.545115,-74.722438
Piscataway,NJ,8854,40.52425,-74.471879
Old Bridge,NJ,8857,40.410907,-74.356698
Parlin,NJ,8859,40.452182,-74.308964
Stockton,NJ,8859,40.404844,-74.975574
Parlin,NJ,8859,40.455952,-74.334448
Perth Amboy,NJ,8861,40.51377,-74.26277
Fords,NJ,8863,40.540532,-74.321685
Alpha,NJ,8865,40.664346,-75.164709
Phillipsburg,NJ,8865,40.74267,-75.14015
Pittstown,NJ,8867,40.57291,-75.011715
Quakertown,NJ,8868,40.566969,-74.947025
Raritan,NJ,8869,40.5681,-74.64639
Sayreville,NJ,8872,40.461861,-74.35626
Somerset,NJ,8873,40.49591,-74.519406
Somerville,NJ,8876,40.574252,-74.712799
Branchburg,NJ,8876,40.560536,-74.697875
Perth Amboy,NJ,8876,40.53098,-74.273109
Laurence Harbor,NJ,8879,40.44471,-74.246839
South Amboy,NJ,8879,40.481012,-74.274309
 Bound Brook,NJ,8880,40.55427,-74.5311
South Bound Brook,NJ,8880,40.550859,-74.522619
South River,NJ,8882,40.440596,-74.384803
Spotswood,NJ,8884,40.400377,-74.389336
Stewartsville,NJ,8886,40.681499,-75.124517
Three Bridges,NJ,8887,40.524146,-74.79552
Whitehouse Station,NJ,8889,40.590027,-74.758176
New Brunswick,NJ,8901,40.479855,-74.462128
New Brunswick,NJ,8902,40.42355,-74.49118
North Brunswick,NJ,8902,40.433305,-74.517506
New Brunswick,NJ,8903,40.472621,-74.467593
Williamstown,NJ,8904,39.689871,-75.014486
Highland Park,NJ,8904,40.502621,-74.425589
New York,NY,10001,40.747533,-73.990621
New York,NY,10002,40.720106,-73.986003
Manhattan,NY,10002,40.713229,-73.985972
New York,NY,10002,0,0
New York,NY,10003,40.729885,-73.984224
Manhattan,NY,10003,40.735492,-73.987585
New York,NY,10004,40.70517,-74.0161
New York,NY,10006,40.70896,-74.012527
New York,NY,10007,40.716125,-74.011478
New York,NY,10009,40.729227,-73.982442
Manhattan,NY,10009,40.727703,-73.978458
New York,NY,10009,40.724368,-73.986274
New York,NY,10010,40.741993,-73.992267
New York,NY,10011,40.742913,-74.00211
New York,NY,10012,40.721601,-73.99496
New York,NY,10013,40.724602,-74.004965
Manhattan,NY,10013,40.724286,-74.004807
New York,NY,10014,40.729394,-74.006094
New York,NY,10016,40.746107,-73.98101
New York,NY,10018,40.572264,-74.139441
New York,NY,10019,40.767847,-73.988758
New York,NY,10021,40.765457,-73.959748
New York,NY,10022,40.759128,-73.965951
New York,NY,10023,40.771745,-73.987388
New York,NY,10024,40.785961,-73.974053
New York,NY,10025,40.797176,-73.966755
New York,NY,10026,40.802065,-73.951362
New York,NY,10027,40.806544,-73.951424
Manhattan,NY,10027,40.815449,-73.955337
New York,NY,10027,40.810754,-73.956121
New York,NY,10028,40.77515,-73.952833
New York,NY,10029,40.790947,-73.943891
Manhattan,NY,10029,40.795696,-73.944423
New York,NY,10030,40.821407,-73.941061
Manhattan,NY,10030,40.815111,-73.945896
New York,NY,10031,40.82148,-73.949017
New York,NY,10032,40.838114,-73.938386
New York,NY,10033,40.853392,-73.933503
Manhattan,NY,10033,40.8492,-73.931105
New York,NY,10034,40.858165,-73.922348
Manhattan,NY,10034,40.865424,-73.92118
New York,NY,10035,40.801566,-73.935357
New York,NY,10036,40.757722,-73.983326
New York,NY,10037,40.809782,-73.939129
New York,NY,10038,40.711205,-74.001485
New York,NY,10039,40.823966,-73.935757
New York,NY,10040,40.861006,-73.930031
Roosevelt Island,NY,10044,40.763846,-73.948173
New York,NY,10044,40.765156,-73.947076
New York,NY,10065,40.763648,-73.96377
New York,NY,10075,40.770402,-73.951115
New York,NY,10128,40.78048,-73.947957
New York,NY,10153,40.831423,-73.878627
New York,NY,10282,40.717819,-74.013814
Staten Island,NY,10301,40.608851,-74.104304
Staten Island,NY,10302,40.623029,-74.144693
Staten Island,NY,10303,40.62507,-74.151034
Staten Island,NY,10304,40.610932,-74.087001
Staten Island,NY,10305,40.613056,-74.069318
Staten Island,NY,10306,40.569661,-74.10692
Staten Island,NY,10307,40.507909,-74.243025
Staten Island,NY,10308,40.547595,-74.152245
Staten Island,NY,10309,40.520494,-74.211442
Staten Island,NY,10310,40.636579,-74.117069
Staten Island,NY,10311,40.605345,-74.177232
Staten Island,NY,10312,40.523464,-74.186418
Staten Island,NY,10314,40.59273,-74.158597
Bronx,NY,10451,40.822773,-73.921607
Bronx,NY,10452,40.840247,-73.918591
Bronx,NY,10453,40.857333,-73.909629
Bronx,NY,10454,40.809155,-73.917454
Bronx,NY,10455,40.811144,-73.909539
Bronx,NY,10456,40.832184,-73.905563
Bronx,NY,10457,40.838976,-73.900102
Bronx,NY,10458,40.856825,-73.897669
Bronx,NY,10459,40.82233,-73.889175
Bronx,NY,10460,40.820906,-73.880715
Bronx,NY,10461,40.840131,-73.839246
